scalerank,featurecla,name,comment,name_alt,lat_y,long_x,region,subregion,min_zoom,label,name_ar,name_bn,name_de,name_en,name_es,name_fr,name_el,name_hi,name_hu,name_id,name_it,name_ja,name_ko,name_nl,name_pl,name_pt,name_ru,name_sv,name_tr,name_vi,name_zh,wikidataid,ne_id,name_fa,name_he,name_uk,name_ur,name_zht
N,C,C,C,C,N,N,C,C,N,C,C,C,C,C,C,C,C,C,C,C,C,C,C,C,C,C,C,C,C,C,C,C,N,C,C,C,C,C
2,waterfall,Niagara Falls,,,43.087653000,-79.044073000,North America,,5.0,Niagara Falls,شلالات نياجارا,নায়াগ্রা জলপ্রপাত,Niagarafälle,Niagara Falls,Cataratas del Niágara,chutes du Niagara,Καταρράκτες του Νιαγάρα,नायाग्रा जल प्रपात,Niagara-vízesés,Niagara,cascate del Niagara,ナイアガラの滝,나이아가라 폭포,Niagarawatervallen,Niagara,Cataratas do Niágara,Ниагарский водопад,Niagarafallen,Niagara Şelalesi,Thác Niagara,尼亚加拉瀑布,Q34221,1159105019,آبشار نیاگارا,מפלי ניאגרה,Ніагарський водоспад,نیاگرا آبشار,尼亞加拉瀑布城
2,waterfall,Salto Angel,,Angel Falls,5.686836000,-62.061848000,South America,,5.0,Salto Angel,شلالات آنجل,অ্যাঞ্জেল জলপ্রপাত,Salto Ángel,Angel Falls,Salto Ángel,Salto Angel,Καταρράκτες Έιντζελ,एन्जिल जलप्रपात,Angel-vízesés,Air terjun Angel,Salto Angel,エンジェルフォール,앙헬 폭포,Ángelwaterval,Salto Angel,Salto Ángel,Анхель,Angelfallen,Angel Şelalesi,Thác nước Ángel,安赫尔瀑布,Q80299,1159105051,آبشار آنجل,מפל אנחל,Анхель,اینجل آبشار,安赫尔瀑布
2,waterfall,Iguazu Falls,,,-25.568265000,-54.582842000,South America,,5.0,Iguazu Falls,شلالات إجوازو,ইগুয়াসু জলপ্রপাত,Iguazú-Wasserfälle,Iguaçu Falls,Cataratas del Iguazú,chutes d'Iguazú,Καταρράκτες Ιγκουασού,इग्वासू जलप्रपात,Iguazú-vízesés,Air terjun Iguazu,cascate dell'Iguazú,イグアスの滝,이구아수 폭포,Watervallen van de Iguaçu,Wodospad Iguazú,Cataratas do Iguaçu,Игуасу,Iguazúfallen,Iguazú Şelalesi,Thác Iguazu,伊瓜苏瀑布,Q36332,1159105053,آبشار ایگواسو,מפלי איגואסו,Водоспад Іґуасу,اگوازو آبشار,伊瓜苏瀑布
3,cape,Gees Gwardafuy,,,11.812855000,51.235173000,Africa,,5.1,Gees Gwardafuy,رأس عسير,গীস গোয়ারডাফি,Kap Guardafui,Cape Guardafui,Cabo Guardafui,cap Gardafui,Γκις Γκουανταφούι,गीस ग्वारदाफुय,Guardafui-fok,Gees Gwardafuy,Capo Guardafui,グアルダフィ岬,지스 그와르다푸이,Cape Guardafui,Gees Gwardafuy,Cabo Guardafui,Гвардафуй,Kap Gardafai,Gees Gwardafuy,Cape Guardafui,瓜达富伊角,Q1145030,1159104885,گییس جیواردافوی,כף גייס גוורדאפוי,Гардафуй,گیس گوارڈافائی,瓜達富伊角
3,waterfall,Victoria Falls,,,-17.770790000,25.460133000,Africa,,5.1,Victoria Falls,شلالات فيكتوريا,ভিক্টোরিয়া জলপ্রপাত,Victoriafälle,Victoria Falls,cascades Victòria,chutes Victoria,Καταρράκτες Βικτωρίας,विक्टोरिया जलप्रपात,Viktória-vízesés,Air terjun Victoria,cascate Vittoria,ヴィクトリアの滝,빅토리아 폭포,Victoriawatervallen,Wodospady Wiktorii,Cataratas Vitória,Виктория,Victoriafallen,Victoria Şelalesi,Thác Victoria,维多利亚瀑布,Q43278,1159104887,آبشار ویکتوریا,מפל ויקטוריה,Вікторія,وکٹوریا آبشار,维多利亚瀑布
3,island,Wright Island,,,-50.959168000,-72.995002000,Antarctica,,5.1,Wright I.,جزيرة رايت,রাইট দ্বীপ,Wright Island,Wright Island,Wright Island,Wright Island,Νήσος Ράιτ,राइट द्वीप,Wright-sziget,Pulau Wright,Wright Island,ライト島,라이트 아일랜드,Wright Island,Wright Island,Ilha Wright,остров Райт,Wright Island,Wright Adası,Đảo Wright,莱特岛,Q6980542,1159104901,جزیره رایت,האי רייט,острів Райт,رائٹ جزیرہ,萊特島
3,island,Grant Island,,,-50.959168000,-72.995002000,Antarctica,,5.1,Grant I.,جزيرة غرانت,গ্র্যান্ট আইল্যান্ড,Grant-Insel,Grant Island,Isla Grant,île Grant,Νήσος Γκραντ,ग्रांट द्वीप,Grant-sziget,Pulau Grant,Grant Island,グラント島,그랜트 아일랜드,Grant Island,Wyspa Granta,Ilha Grant,остров Грант,Grant Island,Grant Adası,Đảo Grant,格蘭特島,Q1543171,1159104903,جزیره گرنت,האי גראנט,озеро Грант,گرانٹ جزیرہ,格蘭特島
3,island,Newman Island,,,-50.959168000,-72.995002000,Antarctica,,5.1,Newman I.,جزيرة نيومان,নিউম্যান আইল্যান্ড,Newman Island,Newman Island,Isla Newman,Newman Island,Νήσος Νιούμαν,न्यूमैन द्वीप,Newman-sziget,Pulau Newman,Newman Island,ニューマン島,뉴먼 아일랜드,Newman Island,Newman Island,Ilha Newman,остров Ньюман,Newman Island,Newman Adası,Đảo Newman,維曼島,Q6272638,1159104905,جزیره نیومنن,האי ניומן,острів Ньюман,نیومین جزیرہ,維曼島
3,island,Dean Island,,,-50.959168000,-72.995002000,Antarctica,,5.1,Dean I.,جزيرة دين,ডীন আইল্যান্ড,Dean Insel,Dean Island,Isla Dean,Île Dean,Νήσος Ντιν,डीन द्वीप,Dean-sziget,Pulau Dean,Dean Island,ディーン島,딘 아일랜드,Dean Island,Wyspa Dean,Ilha dean,остров Дин,Dean Island,Dean Adası,Đảo Dean,迪安島,Q559842,1159104907,جزیره دین,האי דין,острів Дін,ڈین جزیرہ,迪安島
3,cape,Cape Canaveral,,,28.483713000,-80.534941000,North America,,5.1,Cape Canaveral,رأس كانافيرال,কেপ কানাভেরাল,Cape Canaveral,Cape Canaveral,Cabo Cañaveral,cap Canaveral,Ακρωτήριο Κανάβεραλ,केप कनवेरल,Canaveral-fok,Cape Canaveral,Cape Canaveral,ケープ・カナベラル,케이프커내버럴,Cape Canaveral,Canaveral,Cabo Canaveral,Канаверал,Cape Canaveral,Cape Canaveral,Mũi Canaveral,卡纳维拉尔角,Q193401,1159105007,دماغه کاناورال,כף קנוורל,Мис Канаверал,کیپ کیناویرال,卡納維爾角
3,cape,Cape Mendocino,,,40.350222000,-124.323474000,North America,,5.1,Cape Mendocino,رأس مينوسينو,কেপ মেন্ডোসিনো,Cape Mendocino,Cape Mendocino,Cabo Mendocino,cap Mendocino,Ακρωτήριο Μεντοσίνο,केप मेंडोकिनो,Mendocino-fok,Tanjung Mendocino,Capo Mendocino,メンドシーノ岬,케이프 멘도시노,Cape Mendocino,Przylądek Mendocino,Cabo Mendocino,Мендосино,Cape Mendocino,Mendocino Burnu,Mũi Mendocino,曼杜西诺角,Q780339,1159105009,دماغه مندوسینو,כף מנדוצ'ינו,мис Мендочіно,کیپ مینڈوسینو,曼杜西諾角
3,cape,Cabo San Lucas,,,22.887711000,-109.969843000,North America,,5.1,,كابو سان لوكاس,কাবু সান লুকাস,Cabo San Lucas,Cabo San Lucas,Cabo San Lucas,Cabo San Lucas,Κάβο Σαν Λούκας,कबो सैन लुकस,Cabo San Lucas,Cabo San Lucas,Cabo San Lucas,サンルーカス岬,카보산루카스,Cabo San Lucas,Cabo San Lucas,Cabo San Lucas,Кабо-Сан-Лукас,Cabo San Lucas,Cabo San Lucas,Cabo San Lucas,卡波圣卢卡斯,Q1020776,1159105011,کابو سن لوکاس,קאבו סן לוקאס,Кабо-Сан-Лукас,کابو سن لوکس,卡波聖盧卡斯
3,cape,Cape Churchill,,,58.752014000,-93.182023000,North America,,5.1,,رأس تشرشل,কেপ চার্চিল,Cape Churchill,Cape Churchill,Cabo Churchill,Cape Churchill,Ακρωτήριο Τσώρτσιλ,केप चर्चिल,Churchill-fok,Tanjung Churchill,Cape Churchill,チャーチル岬,케이프 처칠,Cape Churchill,Cape Churchill,Cabo Churchill,мыс Черчилл,Cape Churchill,Churchill Burnu,Mũi Churchill,丘吉尔角,,1159105013,دماغه چرچیل,כף צ'רצ'יל,мис Черчіль,کیپ چرچل,丘吉爾角
3,cape,Cape Cod,,,41.734867000,-69.964865000,North America,,5.1,Cape Cod,رأس كاد,কেপ কড,Cape Cod,Cape Cod,Cabo Cod,cap Cod,Ακρωτήριο Κοντ,केप कॉड,Cape Cod,Tanjung Cod,Capo Cod,ケープコッド,케이프코드,Cape Cod,Cape Cod,Cabo Cod,Кейп-Код,Cape Cod,Cod Burnu,Mũi Cod,鳕鱼角,Q49152,1159105015,دماغه کاد,קייפ קוד,Кейп-Код,کیپ کاڈ,鳕鱼角
3,cape,Cape May,,,37.201700000,-75.926791000,North America,,5.1,Cape May,رأس ماي,কেপ মে,Cape May,Cape May,Cabo May,Cape May,Ακρωτήριο Μέι,केप मे,May-fok,Tanjung May,Cape May,メイ岬,케이프 메이,Cape May,Cape May,Cape May,Мей,Cape May,May Burnu,Mũi May,五月角,Q2065437,1159105017,دماغه می,כף מאי,мис Мей,کیپ مے,開普梅
3,cape,Cabo de Hornos,,Cape Horn,-55.862824000,-67.169425000,South America,,5.1,Cabo de Hornos,كايب هورن,কেপ হর্ন,Kap Hoorn,Cape Horn,Cabo de Hornos,cap Horn,Ακρωτήριο Χορν,हॉर्न अंतरीप,Horn-fok,Tanjung Horn,Capo Horn,ホーン岬,혼곶,Kaap Hoorn,Horn,Cabo Horn,Горн,Kap Horn,Horn Burnu,Cape Horn,合恩角,Q4078,1159105049,دماغه هورن,כף הורן,мис Горн,راس ہورن,合恩角
3,cape,Cape of Good Hope,,,-34.307311000,18.441206000,Africa,,5.1,Cape of Good Hope,رأس الرجاء الصالح,উত্তমাশা অন্তরীপ,Kap der Guten Hoffnung,Cape of Good Hope,Cabo de Buena Esperanza,cap de Bonne-Espérance,Ακρωτήριο της Καλής Ελπίδος,केप ऑफ़ गुड होप,Jóreménység foka,Tanjung Harapan,Capo di Buona Speranza,喜望峰,희망봉,Kaap de Goede Hoop,Przylądek Dobrej Nadziei,Cabo da Boa Esperança,Мыс Доброй Надежды,Godahoppsudden,Ümit Burnu,Mũi Hảo Vọng,好望角,Q4092,1159105165,دماغه امید نیک,כף התקווה הטובה,Мис Доброї Надії,راس امید,好望角
3,cape,Cape Palmas,,,4.373924000,-7.457356000,Africa,,5.1,Cape Palmas,رأس النخيل,কেপ পামাস,Cape Palmas,Cape Palmas,Cabo Palmas,cap des Palmes,Ακρωτήριο Πάλμας,केप पालमास,Pálma-fok,Tanjung Palmas,Capo Palmas,パルマス岬,케이프 팔마스,Cape Palmas,Cape Palmas,Cabo Palmas,Пальмас,Cape Palmas,Palmas Burnu,Mũi Palmas,帕尔马斯角,Q1034489,1159105169,دماغه پالماس,כף פלמס,мис Пальмас,کیپ پالماس,帕爾馬斯角
3,cape,Cape Verde,,,14.732312000,-17.471776000,Africa,,5.1,Cape Verde,شبه جزيرة الرأس الأخضر,কেপ ভার্দে,Cap-Vert-Halbinsel,Cap-Vert,Cabo Verde,Presqu'île du Cap-Vert,Πράσινο Ακρωτήριο,केप वर्दे,Zöld-fok,Tanjung Verde,Penisola di Capo Verde,ヴェルデ岬,베르데곶,Kaap Verde,Przylądek Zielony,Cabo Verde,Зелёный Мыс,Kap Verdehalvön,Cap-Vert,Mũi Verde,佛得角半岛,Q216889,1159105171,دماغه ورده,קאפ-ור,Зелений Мис,کیپ وردے,佛得角半島
3,cape,Cap Bon,,,37.073954000,11.024061000,Africa,,5.1,Cap Bon,الرأس الطيب,ক্যাপ বঁ,Kap Bon,Cap Bon,Cabo Bon,cap Bon,Καπ Μπον,कैप बोन,Cap Bon,Tanjung Bon,Capo Bon,ボン岬半島,캡 본,Kaap Bon,Al-Watan al-Kibli,Cabo Bon,Бон,Kap Bon,Cap Bon,Mũi Bon,卡本半岛,Q849879,1159105173,دماغه بون,כף בון,Бон,کیپ بون,卡本半島
3,pole,Oceanic pole of inaccessibility,,,-48.865032000,-123.401986000,Seven seas (open ocean),South Pacific Ocean,5.1,,قطب المحيط المتعذر الوصول إليه,ওশেনিক পোল অফ ইনঅ্যাক্সেসিবিলিটি,Pol der Unzugänglichkeit,pole of inaccessibility,Polo de inaccesibilidad,pôle d'inaccessibilité,Ωκεάνιος πόλος της σχετικής προσπέλασης,दुर्गमता का महासागरीय ध्रुव,Némó-pont,Titik terpencil,Polo dell'inaccessibilità,到達不能極,도달불능극,pool van ontoegankelijkheid,Biegun niedostępności,polo de inacessibilidade,Полюс недоступности,otillgänglighetspol,Erişilemez okyanus kutbu,Cực bất khả tiếp cận,難抵極,Q752003,1159105175,دوردستترینها,הקוטב האוקיאני הבלתי נגיש,Полюс недосяжності,اوشینک پول آف ان ایکسیسیبلٹی,難抵極
3,pole,South Magnetic Pole 2005 (est),,,-48.865032000,-123.401986000,Antarctica,Southern Ocean,5.1,,قطب جنوبي مغناطيسي,দক্ষিণ চৌম্বক মেরু 2005 (est),magnetischer Südpol,South Magnetic Pole,polo sur magnético,Pôle Sud magnétique,Νότος Μαγνητικός Πόλος 2005 (est),दक्षिण चुंबकीय ध्रुव 2005 (स्था),Déli Mágneses Pólus (2005-óta),Kutub Magnetis Selatan,Polo Sud Magnetico,南磁極,자남극,Magnetische zuidpool 2005,Biegun Południowy 2005 (est),polo sul magnético,южный магнитный полюс,magnetiska sydpolen,Güney Manyetik Kutbu 2005 (est),Cực Nam từ,地磁南极,Q1043682,1159105177,قطب مغناطیسی جنوب,קוטב מגנטי דרום 2005 (est),південний магнітний полюс,ساؤتھ میگنیٹک پول 2005 (est),地磁南極
3,pole,North Magnetic Pole 2005 (est),,,-48.865032000,-123.401986000,Seven seas (open ocean),Arctic Ocean,5.1,,قطب شمالي مغناطيسي,নর্থ ম্যাগনেটিক পোল 2005 (est),magnetischer Nordpol,North Magnetic Pole,Polo norte magnético,Pôle Nord magnétique,μαγνητικός Βόρειος Πόλος,उत्तर चुम्बकीय ध्रुव,North Magnetic Pole 2005 (est),Kutub Utara Medan Magnet Bumi 2005 (perkiraan),Polo Nord magnetico 2005 (est),北磁極,자북극,magnetische noordpool,Biegun północny 2005 (est),polo norte magnético,северный магнитный полюс,magnetiska nordpolen,Manyetik Kuzey Kutbu,Cực Bắc từ,地磁北极,Q842763,1159105179,قطب مغناطیسی شمال,הקוטב המגנטי הצפוני 2005 (est),Північний магнітний полюс,نارتھ میگنیٹک پول 2005 (est),地磁北極
4,cape,Lands End,,,50.069677000,-5.668629000,Europe,British Isles,5.7,Lands End,لاندز إند,ল্যান্ডস এন্ড,Land’s End,Land's End,Land's End,Land's End,Λαντς Έντ,लैंड्स एंड,Lands End,Lands End,Land's End,ランズ・エンド,랜즈 엔드,Land's End,Land's End,Land's End,Лендс-Энд,Land's End,Lands End,Mũi Lands End,兰兹角,Q169532,1159104689,لندز اند,לנדס אנד,Лендс-Енд,لینڈز اینڈ,蘭茲角
4,cape,Cape York,,,76.218919000,-68.218612000,North America,Greenland,5.7,Cape York,رأس يورك,কেপ ইয়র্ক,Kap York,Cape York,Cabo York,cap York,Ακρωτήριο Γιορκ,केप यॉर्क,York-fok,Tanjung York,Capo York,ヨーク岬,케이프 요크,Kaap York,Kap York,Cabo York,Йорк,Kap York,York Burnu,Mũi York,约克角,Q1636266,1159104697,دماغه یورک,כף יורק,Мис Йорк,کیپ یارک,約克角
4,cape,Nunap Isua,,Cape Farewell,59.862583000,-43.900880000,North America,Greenland,5.7,,نوناب إيسوا,নানাপ ইসুয়া,Kap Farvel,Cape Farewell,Cabo Farewell,cap Farvel,Ακρωτήριο Φάρβελ,नुनाप इसुआ,Farvel-fok,Nunap Isua,Capo Farvel,ファーベル岬,누납 이수아,Kaap Vaarwel,Farvel,Cabo Farvel,Фарвель,Kap Farvel,Nunap Isua,Mũi Nunap Isua,法韦尔角,Q128097,1159104701,نوناپ ایسوا,כף פרוול,Мис Фарвель,نوناپ ایسوا,法韋爾角
4,cape,Cape Vohimena,,,-25.546355000,45.158683000,Africa,Indian Ocean,5.7,,رأس فوهيمينا,কেপ ভোহিমেনা,Cap Vohimena,Cape Saint Marie,Cabo Vohimena,Cap Sainte-Marie,Ακρωτήριο Βοχίμενα,केप वोहिमेन,Vohimena-fok,Tanjung Vohimena,Cape Vohimena,ボヒメナ岬,케이프 보히메나,Cape Saint Marie,Przylądek Tanjona Vohimena,Cabo de Santa Maria,Вухимена,Tanjon' i Vohimena,Vohimena Burnu,Mũi Vohimena,沃希梅纳角,Q1352197,1159104711,کیپ سنت ماری,כף ווהימנה,мис Вогімена,کیپ وہیمینا,武伊梅納角
4,island,Vavau,,,-18.590062000,-173.976769000,Oceania,Polynesia,5.7,Vavau,فافاو,ভ্যাভাউ,ʻUtu Vavaʻu,Vavaʻu,Vava'u,Vavaʻu,Βαβάου,वावौ,Vavau,Vavau,Vavau,ヴァヴァウ島,바바우,Vavaʻu,Vavau,Vavaʻu,остров Вавау,Vavau,Vavau,Đảo Vavau,瓦瓦乌岛,Q20456736,1159104833,واوائو,האי וואוואו,Вава'у,واوو,瓦瓦烏島
4,island,I. de Pascua,,Easter I.,-27.102117000,-109.367953000,Oceania,Polynesia,5.7,,جزيرة القيامة,ইস্টার দ্বীপ,Osterinsel,Easter Island,Isla de Pascua,île de Pâques,Νησί του Πάσχα,ईस्टर द्वीप,Húsvét-sziget,Pulau Paskah,Isola di Pasqua,イースター島,이스터섬,Paaseiland,Wyspa Wielkanocna,Ilha de Páscoa,Остров Пасхи,Påskön,Paskalya Adası,Đảo Phục Sinh,复活节岛,Q14452,1159104835,جزیره ایستر,אי הפסחא,Острів Пасхи,جزیرہ ایسٹر,復活節島
4,cape,Cape Agulhas,,,-34.801182000,19.993472000,Africa,,5.7,Cape Agulhas,رأس أقولاس,কেপ আগুলহাস,Kap Agulhas,Cape Agulhas,Cabo de las Agujas,cap des Aiguilles,Ακρωτήριο Αγκούλιας,एगुलस अन्तरीप,Agulhas-fok,Tanjung Agulhas,Capo Agulhas,アガラス岬,아굴라스곶,Kaap Agulhas,Przylądek Igielny,Cabo das Agulhas,Игольный,Agulhas,Agulhas Burnu,Mũi Agulhas,厄加勒斯角,Q4085,1159104883,دماغه آگولاس,כף אגולס,Мис Голковий,کیپ آگولاز,厄加勒斯角
4,plain,Plain of Jars,,,20.550709000,101.890532000,Asia,,5.7,,سهل الجرار,প্লেন অফ জারস,Ebene der Tonkrüge,Plain of Jars,Páramo de las tinajas,Plaine des Jarres,ΠΕΔΙΑΔΑ ΤΖΑΡΣ,जार का मैदान,Plain of Jars-síkság,Dataran Guci,Piana delle giare,ジャール平原,단지평원,Vlakte der Kruiken,Równina Dzbanów,Planície dos Jarros,Долина Кувшинов,Krukslätten,Küpler Vadisi,Cánh đồng Chum,查爾平原,Q870258,1159104967,دشت خمرهها,עמק הכדים,Долина глеків,پلین آف جارز,查爾平原
4,cape,Cabo Corrientes,,,20.409471000,-105.683581000,North America,,5.7,Cabo Corrientes,كابو كورينتس,কাবো কোররিয়েন্তেস,Cabo Corrientes,Cabo Corrientes,Cabo Corrientes,Cabo Corrientes,Κάμπο Κορριέντες,काबो कोरियंटेस,Corrientes-fok,Tanjung Corrientes,Cabo Corrientes,コリエンテス岬,카보 코리엔테스,Cabo Corrientes,Przylądek Corrientes,Cabo Corrientes,Кабо-Корриентес,Cabo Corrientes,Corrientes Burnu,Cabo Corrientes,卡波科連特斯,Q2932434,1159104991,کابو کورینته,כף קוריינטס,Кабо Коррієнтес,کابو کورائنٹیس,卡波科連特斯
4,cape,Pt. Eugenia,,,27.861925000,-115.076290000,North America,,5.7,Pt. Eugenia,قمة يوجينيا,পয়েন্ট ইউজেনিয়া,Punta Eugenia,Punta Eugenia,Puerto Eugenia,Punta Eugenia,Πτ. Ευγενία,पॉइंट यूजेनिया,Port Eugenia-fok,Pt. Eugenia,Punta Eugenia,エウヘニア岬,푼타 유지니아,Punta Eugenia,Eugenia,Ponta Eugenia,мыс Пунта-Эухения,Punta Eugenia,Pt. Eugenia,Mũi Eugenia,尤金伲亚角,,1159104993,پونتا اوگنیا,פוינט יוג'יניה,мис Юджина,PT. یوجینیا,尤金尼亞角
4,cape,Point Conception,,,34.582313000,-120.659016000,North America,,5.7,,جبل كونسيبشن,পয়েন্ট কনসেপশন,Point Conception,Point Conception,Punta Concepción,Point Conception,Πόιντ Κονσεπσιόν,पॉइंट कन्सेप्शन,Point Conception-fok,Point Conception,Point Conception,ポイント・コンセプション,포인트 컨셉션,Point Conception,Point Conception,Point Conception,мыс Консепшн,Point Conception,Point Conception,Mũi Conception,康塞普申角,Q3307973,1159104995,پوینت کانسپشن,פוינט קונספשן,Поінт-Консепсьон,پوائنٹ کنسیپٹیون,康塞普申角
4,cape,Cape Hatteras,,,35.437762000,-75.450543000,North America,,5.7,Cape Hatteras,رأس هاتيراس,কেপ হ্যাত্তেরাস,Cape Hatteras,Cape Hatteras,Cabo Hatteras,cap Hatteras,Ακρωτήριο Χατέρας,केप हैटरस,Cape Hatteras,Tanjung Hatteras,capo Hatteras,ハッテラス岬,케이프 해테라스,Cape Hatteras,przylądek Hatteras,Cabo Hatteras,Хаттерас,Cape Hatteras,Hatteras Burnu,Mũi Hatteras,哈特拉斯角,Q978032,1159104997,دماغه هتراس,כף האטראס,Мис Гаттерас,کیپ ہیٹاراس,哈特拉斯角
4,cape,Cape Sable,,,25.124896000,-81.090442000,North America,,5.7,Cape Sable,رأس سابل,কেপ স্যাবেল,Cape Sable,Cape Sable,Cabo Sable,cap Sable,Ακρωτήριο Σέιμπλ,केप सेबल,Sable-fok,Tanjung Sable,Cape Sable,サブレ岬,케이프 세이블,Cape Sable,Cape Sable,Cabo Sable,мыс Сейбл,Cape Sable,Sable Burnu,Mũi Sable,沙布耳角,Q2937102,1159104999,دماغه سیبل,כף סייבל,мис Сейбл,کیپ سیبل,沙布耳角
4,cape,Cape Hope,,,68.356380000,-166.815582000,North America,,5.7,Cape Hope,رأس هوب,কেপ হোপ,Cape Hope,Point Hope,Cabo Hope,Kap Hope,Ακρωτήριο της Ελπίδας,केप होप,Hope-fok,Tanjung Hope,Capo di Buona Speranza,ホープ岬,케이프 호프,Cape Hope,Cape Hope,Point Hope,мыс Хоуп,Kap Hope,Hope Burnu,Mũi Hope,好望角,Q7208042,1159105001,دماغه هوپ,כף הופ,мис Надії,کیپ ہوپ,好望角
4,cape,Point Barrow,,,71.372637000,-156.615894000,North America,,5.7,Point Barrow,نقطة بارو,ব্যারো বিন্দু,Point Barrow,Point Barrow,Punta Barrow,Point Barrow,Πόιντ Μπάροου,पॉइंट बैरो,Point Barrow-fok,Point Barrow,Punta Barrow,ポイント・バロー,배로곶,Point Barrow,Point Barrow,Point Barrow,Барроу,Point Barrow,Point Barrow,Mũi Barrow,巴罗角,Q1343019,1159105003,پوینت بارو,פוינט בארו,Мис Барроу,پوائنٹ بیرو,巴羅角
4,cape,Punta Negra,,,-5.948875000,-81.108252000,South America,,5.7,,بونتا نيجرا,পুন্টা নেগ্রা,Punta Negra,Punta Negra,Punta Negra,Punta Negra,Πούντα Νέγκρα,पुंटा नेग्रा,Punta Negra,Punta Negra,Punta Negra,プンタ・ネグラ,푼타 네그라,Punta Negra,Punta Negra,Punta Negra,мыс Пунта-Негра,Punta Negra,Punta Negra,Mũi Negra,内格拉角,Q987098,1159105045,پونتا نگارا,פונטה נגרה,Пунта-Негра,پونٹا نیگرا,內格拉角
4,cape,Punta Lavapié,,,-37.262867000,-73.606377000,South America,,5.7,,بونتا لافابيه,পুন্টা লাভাপি,Punta Lavapié,Punta Lavapié,Punta Lavapié,Punta Lavapié,Πούντα Λαβαπιέ,पुंटा लावापिएस,Punta Lavapié,Punta Lavapie,Punta Lavapié,プンタ・ラバピエ,푼타 라바피에,Punta Lavapié,Punta Lavapié,Punta Lavapié,мыс Пунта-Лавапье,Punta Lavapié,Punta Lavapié,Mũi Lavapié,拉瓦皮埃角,,1159105047,پونتا لاواپیه,פונטה לאוואפיה,Пунта-Лавапі,پونٹا لاواپئی,拉瓦皮耶角
4,cape,Punta Galera,,,0.731221000,-80.062205000,South America,,5.7,,بونتا جاليرا,পুন্টা গ্যালেরা,Punta Galera,Punta Galera,Punta Galera,Punta Galera,Πούντα Γκαλέρα,पुंटा गैलेरा,Punta Galera,Punta Galera,Punta Galera,プンタ・ガレラ,푼타 갈레라,Punta Galera,Punta Galera,Punta Galera,мыс Пунта-Галера,Punta Galera,Punta Galera,Mũi Galera,加莱拉角,,1159105157,پونتا گالرا,פונטה גאלרה,Пунта-Галера,پونٹا گیلیرا,加列拉角
4,cape,Cap Lopez,,,-0.604761000,8.726423000,Africa,,5.7,,رأس لوبيز,ক্যাপ লোপেজ,Cap Lopez,Cape Lopez,Cabo López,Cap Lopez,Καπ Λόπεζ,कैप लोपेज़,Lopez-fok,Tanjung Lopez,Cap Lopez,ロペス岬,캡 로페즈,Kaap Lopez,Przylądek Lopez,Cabo Lopes,мыс Лопес,Cap Lopez,Cap Lopez,Mũi Lopez,洛佩斯角,,1159105159,دماغه لوپز,כף לופז,мис Лопез,کیپ لوپیز,洛佩茲角
4,cape,Cape Bobaomby,,,-11.966598000,49.262904000,Africa,,5.7,Cape Bobaomby,رأس بوبومبي,কেপ বোবাওম্বে,Capa Babaomby,Cap d'Ambre,Cabo Bobaomby,cap d'Ambre,Ακρωτήριο Μπόμπαομπι,केप बोबाओम्बी,Bobaomby-fok,Tanjung Bobaomby,Capo Bobaomby,ブバオンビ岬,케이프 보바옴비,Cap d'Ambre,Tanjona Bobaomby,Cabo Bobaomby,Бубаумби,Cap d'Ambre,Bobaomby Burnu,Mũi Bobaomby,波班比角,Q2937135,1159105161,دماغه بوبامبی,כף בובאומבי,мис Бобаомбі,کیپ بوبا اومبی,波班比角
4,cape,Cap Blanc,,,20.822108000,-17.052856000,Africa,,5.7,,الرأس الأبيض,ক্যাপ ব্ল্যাঁ,Cap Blanc,Ras Nouadhibou,Cabo Blanc,Cap Blanc,Καπ Μπλανκ,कैप ब्लैंक,Blanc-fok,Tanjung Blanc,Cap Blanc,カップ・ブラン,캡 블랑,Cap Blanc,Przylądek Biały,Cabo Branco,мыс Кап-Блан,Cap Blanc,Cap Blanc,Mũi Blanc,卡普布朗角,,1159105163,دماغه بلانک,כף בלאן,мис Бланк,کیپ بلینک,布朗克角
5,cape,South West Cape,,,-43.510984000,146.054227000,Oceania,Australia,6.0,South West Cape,رأس الركن الجنوبي الغربي,দক্ষিণ পশ্চিম কেপ,South West Cape,South West Cape,Cabo Suroeste,Cap Sud-Ouest,Νοτιοδυτικό Ακρωτήριο,दक्षिण पश्चिम केप,Délnyugati-fok,South West Cape,South West Cape,サウス・ウェスト岬,사우스 웨스트 케이프,South West Cape,Południowo-zachodnia pokrywa,Cabo Sudoeste,мыс Саут-Вест,South West Cape,Güneybatı Burnu,Mũi South West,西南角,Q7568836,1159104653,دماغه جنوب غرب,דרום מערב הכף,Саус-Вест,ساؤتھ ویسٹ کیپ,西南海角
5,cape,Cape Howe,,,-37.488775000,149.958534000,Oceania,Australia,6.0,,رأس هو,কেপ হোয়ে,Cape Howe,Cape Howe,Cabo Howe,Cape Howe,Ακρωτήριο Χάου,केप होव,Howe-fok,Tanjung Howe,Capo Howe,ハウ岬,케이프 하우,Cape Howe,Cape Howe,Cabo Howe,мыс Хау,Cape Howe,Howe Burnu,Mũi Howe,豪角,,1159104655,دماغه هو,כף האו,мис Хоу,کیپ ہوئی,豪角
5,cape,Cape Otway,,,-38.857622000,143.565403000,Oceania,Australia,6.0,Cape Otway,رأس أوتواي,কেপ ওটোয়ে,Cape Otway,Cape Otway,Cabo Otway,cap Otway,Ακρωτήριο Ότγουεϊ,केप ओटवे,Otway-fok,Tanjung Otway,Capo Otway,ケープ・オトウェイ,케이프 오트웨이,Cape Otway,Cape Otway,Cabo Otway,мыс Отуэй,Cape Otway,Otway Burnu,Mũi Otway,奥特韦角,Q838457,1159104657,کیپ آتوی,כף אוטוויי,мис Отвей,کیپ اوٹوے,奧特威角
5,cape,Cape Jaffa,,,-36.944244000,139.690866000,Oceania,Australia,6.0,,رأس جافا,কেপ জাফফা,Cape Jaffa,Cape Jaffa,Cabo Jaffa,Cape Jaffa,Ακρωτήριο Γιάφα,केप जाफ़ा,Jaffa-fok,Tanjung Jaffa,Cape Jaffa,ジャファ岬,케이프 자파,Cape Jaffa,Cape Jaffa,Cabo Jaffa,мыс Джаффа,Cape Jaffa,Jaffa Burnu,Mũi Jaffa,雅法角,,1159104659,دماغه جفا,כף ג'אפה,мис Джаффа,کیپ جافا,雅法角
5,cape,Cape Carnot,,,-34.920233000,135.656027000,Oceania,Australia,6.0,,رأس كارنوت,কেপ কারনোট,Cape Carnot,Cape Carnot,Cabo Carnot,Cape Carnot,Ακρωτήριο Καρνό,केप कार्नोट,Carnot-fok,Tanjung Carnot,Capo Carnot,カーノット岬,케이프 카르노,Cape Carnot,Przylądek Carnot,Cabo Carnot,мыс Карно,Cape Carnot,Carnot Burnu,Mũi Carnot,卡诺角,,1159104661,دماغه کارنات,כף קרנוט,мис Карнот,کیپ کارنوٹ,卡諾角
5,cape,Cape Byron,,,-28.658282000,153.632849000,Oceania,Australia,6.0,Cape Byron,كيب بايرون,কেপ বায়রন,Cape Byron,Cape Byron,Cabo Byron,cap Byron,Ακρωτήριο Μπάιρον,केप बायरोन,Byron-fok,Tanjung Byron,Capo Byron,バイロン岬,케이프 바이런,Cape Byron,Przylądek Byrona,Cabo Byron,Байрон,Kap Byron,Byron Burnu,Cape Byron,拜伦角,Q1034320,1159104665,دماغه بیرون,כף ביירון,Мис Байрон,کیپ بائرون,拜伦角
5,cape,Cape Manifold,,,-22.702081000,150.811228000,Oceania,Australia,6.0,,رأس مانيفولد,কেপ মানিফোল্ড,Cape Manifold,Cape Manifold,Cabo Manifold,Cape Manifold,Ακρωτήριο Μάνιφολντ,केप मैनिफोल्ड,Manifold-fok,Tanjung Manifold,Cape Manifold,マニフォールド岬,케이프 매니폴드,Cape Manifold,Cape Manifold,Cabo Manifold,мыс Манифолд,Cape Manifold,Manifold Burnu,Mũi Manifold,马尼福尔德角,,1159104667,دماغه مانیفولد,כף מאניפולד,мис Маніфолд,کیپ مینیفولڈ,馬尼福德角
5,cape,Cape York,,,-10.710859000,142.522018000,Oceania,Australia,6.0,Cape York,رأس يورك,কেপ ইয়র্ক,Cape York,Cape York,Cabo York,Péninsule du cap York,Ακρωτήριπ Γιορκ,केप यॉर्क,York-fok,Tanjung York,Capo York,ヨーク岬,케이프 요크,Kaap York,Jork,Cabo York,Йорк,Kap York,York Burnu,Mũi York,约克角,Q1728345,1159104669,دماغه یورک,כף יורק,Йорк,کیپ یارک,約克角
5,cape,Cape Melville,,,-14.163629000,144.506417000,Oceania,Australia,6.0,,رأس ميلفيل,কেপ মেলভিল,Cape Melville,Cape Melville,Cabo Melville,Cape Melville,Ακρωτήριο Μέλβιλ,केप मेलविल,Melville-fok,Tanjung Melville,Capo Melville,メルビル岬,케이프 멜빌,Cape Melville,Cape Melville,Cabo Melville,мыс Мелвилл,Cape Melville,Melville Burnu,Mũi Melville,麦维尔角,,1159104671,دماغه ملوی,כף מלוויל,мис Мелвіл,کیپ میل ولے,梅爾維爾角
5,cape,Cape Arnhem,,,-12.337984000,136.952429000,Oceania,Australia,6.0,,رأس أرنهيم,কেপ আর্নহেম,Cape Arnhem,Cape Arnhem,Cabo Arnhem,Cape Arnhem,Ακρωτήριο Άρνεμ,केप अर्नहेम,Arnhem-fok,Tanjung Arnhem,Capo Arnhem,アーネム岬,케이프 아넘,Cape Arnhem,Przylądek Arnhem,Cabo Arnhem,мыс Арнхем,Kap Arnhem,Arnhem Burnu,Mũi Arnhem,阿纳姆角,,1159104673,دماغه ارنهم,כף ארנהם,мис Арнем,کیپ آرنیم,阿納姆角
5,cape,West Cape Howe,,,-35.104301000,117.597011000,Oceania,Australia,6.0,,ويست كيب هاو,ওয়েস্ট কেপ হাও,West Cape Howe,West Cape Howe,West Cape Howe,West Cape Howe,Δυτικό Ακρωτήριο Χάου,वेस्ट केप होव,West Cape Howe,West Cape Howe,West Cape Howe,ウェスト・ケープ・ハウ,웨스트 케이프 하우,West Cape Howe,West Cape Howe,West Cape Howe,мыс Вест-Кейп-Хау,West Cape Howe,Batı Howe Burnu,Mũi West Cape Howe,西岬洞,,1159104675,کیپ هاو غربی,ווסט כף האו,Вест-Кейп-Хоу,ویسٹ کیپ ہوئے,西開普豪
5,cape,Cape Leeuwin,,,-34.297841000,115.106330000,Oceania,Australia,6.0,Cape Leeuwin,كيب ليوين,কেপ লীউইন,Kap Leeuwin,Cape Leeuwin,Cabo Leeuwin,cap Leeuwin,Ακρωτήριο Λέουουιν,केप लीउविन,Leeuwin-fok,Tanjung Leeuwin,Capo Leeuwin,ルーウィン岬,케이프 류윈,Kaap Leeuwin,Cape Leeuwin,Cabo Leeuwin,Луин,Cape Leeuwin,Leeuwin Burnu,Mũi Leeuwin,露纹角,Q1536418,1159104677,دماغه لیووین,כף לואין,Мис Левін,کیپ لیوون,露紋角
5,cape,Cape Pasley,,,-33.929054000,123.517283000,Oceania,Australia,6.0,,رأس باسلي,কেপ পেসলি,Cape Pasley,Cape Pasley,Cabo Pasley,Cape Pasley,Ακρωτήριο Πάσλεϊ,केप पास्ली,Pasley-fok,Tanjung Pasley,Cape Pasley,パスリー岬,케이프 파슬리,Cape Pasley,Przylądek Pasley,Cabo Pasley,мыс Пасли,Cape Pasley,Pasley Burnu,Mũi Pasley,帕斯利角,,1159104679,دماغه پالسی,כף פאסלי,мис Паслі,کیپ پاسلے,帕斯利角
5,cape,Cape Londonderry,,,-13.713856000,126.964514000,Oceania,Australia,6.0,,رأس لندنيري,কেপ লন্ডোন্ডেরই,Kap Londonderry,Cape Londonderry,Cabo Londonderry,Cape Londonderry,Ακρωτήριο Λοντοντέρι,केप लंदनडेरी,Londonderry-fok,Tanjung Londonderry,Cape Londonderry,ロンドンデリー岬,케이프 런던데리,Cape Londonderry,Cape Londonderry,Cabo Londonderry,мыс Лондондерри,Kap Londonderry,Londonderry Burnu,Mũi Londonderry,伦敦德里角,,1159104683,دماغه لاندونری,כף לונדונדרי,мис Лондондеррі,کیپ لندن ڈیری,倫敦德里角
5,cape,Steep Point,,,-26.168220000,113.169959000,Oceania,Australia,6.0,Steep Point,نقطة الانحدار,স্টেপ পয়েন্ট,Steep Point,Steep Point,Punta Steep,pointe Escarpée,Στιπ Πόιντ,स्टीप पॉइंट,Steep Point,Steep Point,Steep Point,スティープ・ポイント,스팁 포인트,Steep Point,Steep Point,Steep Point,Стип-Пойнт,Steep Point,Steep Point,Mũi Steep,斯提普角,Q1999953,1159104685,استیپ پوینت,נקודה תלולה,Стіп-Поінт,اسٹیپ پوائنٹ,陡峭點
5,cape,North West Cape,,,-21.809776000,114.117534000,Oceania,Australia,6.0,,نورث ويست كيب,নর্থ ওয়েস্ট কেপ,North West Cape (Nordwestkap),North West Cape,Cabo Noroeste,North West Cape,Βορειοδυτικό Ακρωτήριο,उत्तर पश्चिम केप,Északnyugati-fok,North West Cape,Capo Nord-Ovest,ノース・ウェスト岬,노스 웨스트 케이프,North West Cape,Północno-zachodnia pokrywa,Cabo Noroeste,мыс Норт-Уэст-Кейп,North West Cape,Kuzeybatı Burnu,Mũi North West,西北角,,1159104687,دماغه شمال غرب,הכף הצפון מערבית,Норт-Вест,نارتھ ویسٹ کیپ,西北角
5,cape,Cabo Gracias a Dios,,,14.994242000,-83.158660000,North America,Central America,6.0,,كابو غراسياس آ ديوس,কাবো গ্রাসিয়াস আ দিয়োস,Cabo Gracias a Dios,Cabo Gracias a Dios,Cabo Gracias a Dios,Cabo Gracias a Dios,Κάμπο Γκράσια α Ντίος,काबो ग्रेसिआज़ अ डायओस,Cabo Gracias a Dios,Tanjung Gracias a Dios,Cabo Gracias a Dios,グラシアス・ア・ディオス岬,카보 그라시아스 아 디오스,Kaap Gracias a Dios,Przylądek Gracias a Dios,Cabo Gracias a Dios,Кабо-Грасиас-а-Диос,Cabo Gracias a Dios,Cabo Gracias a Dios,Mũi Gracias a Dios,格拉西亞斯阿迪奧斯角,,1159104691,کابو فریو,כף גרסיאס א דיוס,Кабо-Граціас-а-Діос,کابو گراسیاس اے ڈائوس,格拉夏斯迪歐斯角
5,cape,Cape Brewster,,,70.150754000,-22.122616000,North America,Greenland,6.0,Cape Brewster,رأس بروستر,কেপ ব্রুস্টার,Kap Brewster,Cape Brewster,Cabo Brewster,Cape Brewster,Ακρωτήριο Μπρούστερ,केप ब्रूस्टर,Brewster-fok,Tanjung Brewster,Capo Brewster,ブリュースター岬,케이프 브루스터,Kaap Brewster,Przylądek Brewstera,Cabo Brewster,мыс Брюстер,Kap Brewster,Brewster Burnu,Mũi Brewster,布鲁斯特角,Q3657109,1159104693,دماغه بروستر,כף ברוסטר,мис Брюстер,کیپ بریوسٹر,布魯斯特角
5,cape,Cape Morris Jesup,,,83.626331000,-32.491541000,North America,Greenland,6.0,Cape Morris Jesup,رأس موريس جيسوب,কেপ মরিস জেসাপ,Kap Morris Jesup,Cape Morris Jesup,Cabo Morris Jesup,cap Morris Jesup,Ακρωτήριο Μόρις Τζέσουπ,केप मॉरिस जेसुप,Morris Jesup-fok,Tanjung Morris Jesup,Capo Morris Jesup,モリス・ジェサップ岬,모리스재섭곶,Kaap Morris Jesup,Kap Morris Jesup,Cabo Morris Jesup,Моррис-Джесуп,Kap Morris Jesup,Morris Jesup Burnu,Mũi Morris Jesup,莫里斯·杰塞普角,Q917353,1159104695,دماغه موریس جسوپ,כף מוריס יסופ,Мис Моррис-Джесуп,کیپ مورس جیسپ,莫里斯·傑塞普角
5,island,Grímsey,,,66.669359000,-18.251096000,Europe,Iceland,6.0,Grímsey,غريمساى,গ্রিমসে,Grímsey,Grímsey,Grímsey,Grímsey,Γκρίμσεϊ,ग्रिमसे,Grímsey,Grimsey,Grímsey,グリムセイ島,그림세이,Grímsey,Grímsey,Grímsey,Гримсей,Grímsey,Grímsey,Grímsey,格里姆赛岛,Q213707,1159104705,گریمسی,האי גרימזי,Ґрімсей,گرمسی,格里姆賽島
5,island,Surtsey,,,63.217764000,-20.434929000,Europe,Iceland,6.0,Surtsey,سرتسي,সার্টসে,Surtsey,Surtsey,Surtsey,Surtsey,Σούρτσεϊ,सरट्से,Surtsey,Surtsey,Surtsey,スルツェイ島,쉬르트세이섬,Surtsey,Surtsey,Surtsey,Сюртсей,Surtsey,Surtsey,Surtsey,叙尔特塞,Q178124,1159104707,سورت,סירטסיי,Суртсей,سورتسی,敘爾特塞
5,cape,Cap Est,,,-15.274849000,50.499889000,Africa,Indian Ocean,6.0,,رأس إيست,ক্যাপ এস্ত,Cap Est,Tanjona Angontsy,Cap Est,Cap Est,Καπ Εστ,कैप एस्ट,Est-fok,Tanjung Est,Cap Est,キャップ・エスト,캡 에스트,Cap Est,Przylądek Wschodni,Cabo del Este,,Cap Est,Cap Est,Mũi Est,东角,,1159104709,دماغه است,הכף המזרחית,мис Ест,کیپ ایسٹ,伊斯特角
5,cape,Cape Cretin,,,-6.637492000,147.852392000,Oceania,Melanesia,6.0,,رأس كريتين,কেপ ক্রেটিন,Cape Cretin,Cape Cretin,Cabo Cretin,Cape Cretin,Ακρωτήριο Κρέτιν,केप क्रेटिन,Cretin-fok,Tanjung Cretin,Capo Cretin,クレティン岬,케이프 크레틴,Cape Cretin,Cape Cretin,Cabo Cretin,мыс Кретин,Kap Cretin,Cretin Burnu,Mũi Cretin,克雷廷角,,1159104727,دماغه کرتین,כף קרטין,мис Кретин,کیپ کریٹن,克雷廷角
5,island,Îles Chesterfield,,,-19.204470000,159.951710000,Oceania,Melanesia,6.0,,جزر تشيسترفيلد,ইলেস চেস্টারফিল্ড,Chesterfieldinseln,Chesterfield Islands,Islas Chesterfield,Îles Chesterfield,Ίλ Τσέστερφιλντ,इलेस चेस्टरफ़ील्ड,Chesterfield-sziget,Kepulauan Chesterfield,Îles Chesterfield,チェスターフィールド諸島,일스 체스터필드,Chesterfield Islands,Wyspy Chesterfield,Ilhas Chesterfield,острова Честерфилд,Chesterfieldöarna,Îles Chesterfield,Đảo Chesterfield,切斯特菲尔德群岛,,1159104729,جزایر چسترفیلد,האי צ'סטרפילד,острови Честерфільд,آئیس چیسٹرفیلڈ,赤斯特非島
5,island,Pagan,,,18.119631000,145.785087000,Oceania,Micronesia,6.0,Pagan,باجان,পাগান,Pagan,Pagan,isla de Pagán,île Pagan,Παγκάν,पगान,Pagan,Pagan,Pagan,パガン島,페이간,Pagan,Pagan,Ilha Pagan,Паган,Pagan,Pagan Adası,Đảo Pagan,帕甘岛,Q1126761,1159104751,پاگان,האי פאגאן,Паган,پیگن,帕甘島
5,island,Wake I.,,,19.303497000,166.636262000,Oceania,Micronesia,6.0,,جزيرة ويك,ওয়েক আইল্যান্ড,Wake Island,Wake Island,Isla Wake,Île Wake,Νήσος Γουέικ,वेक द्वीप,Wake sziget,Pulau Wake,Isola di Wake,ウェーク島,웨이크 아일랜드,Wake-eiland,Wake,Ilha Wake,остров Уэйк,Wakeöarna,Wake Adası,Đảo Wake,威克岛,,1159104755,جزیره ویک,האי וואקה,острів Вейк,ویک I۔,威克島
5,island,Tabiteuea,,,-1.201405000,174.755207000,Oceania,Micronesia,6.0,Tabiteuea,تابيتويا,ট্যাবিটিউয়া,Tabiteuea,Tabiteuea,Tabiteuea,Tabiteuea,Ταμπιτεουέα,ताबीतेयूआ,Tabiteuea,Tabiteuea,Tabiteuea,タビテウエア,타비테우에아,Tabiteuea,Tabiteuea,Tabiteuea,Табитеуэа,Tabiteuea,Tabiteuea,Tabiteuea,塔比特韋亞環礁,Q1059267,1159104757,تابیتیویا,טאביטאואה,Табітеуеа,تابیٹیوا,塔位元韋亞環礁
5,island,Aranuka,,,0.226766000,173.626286000,Oceania,Micronesia,6.0,Aranuka,أرانوكا,আরানুকা,Aranuka,Aranuka,Aranuka,Aranuka,Αρανούκα,अरनुका,Aranuka,Aranuka,Aranuka,アラヌーカ環礁,아라누카,Aranuka,Aranuka,Aranuka,Аранука,Aranuka,Aranuka,Đảo Aranuka,阿拉努卡環礁,Q626095,1159104759,آرانوکا,אראנוקה,Аранука,آرانوکا,阿拉努卡環礁
5,island,Nauru,,,-0.505856000,166.930778000,Oceania,Micronesia,6.0,Nauru,ناورو,নাউরু,Nauru,Nauru,Nauru,Nauru,Ναούρου,नाउरू,Nauru,Nauru,Nauru,ナウル島,나우루,Nauru,Nauru,Nauru,Науру,Nauru,Nauru,Đảo Nauru,瑙鲁岛,Q30151675,1159104761,نائورو,נאורו,Науру,ناورو,諾魯島
5,island,Ebon,,,4.599770000,168.736432000,Oceania,Micronesia,6.0,,إيبون,এবন,Ebon-Atoll,Ebon,Ebon,Ebon,Έμπον,एबोन,Ebon,Ebon,Ebon,エボン島,에본,Ebon,Ebon,Ebon,,Ebon,Ebon,Đảo Ebon,埃邦环礁,,1159104763,ابرون,האי איבון,Ебон,ایبون,埃邦島
5,island,Jaluit,,,5.964455000,169.682894000,Oceania,Micronesia,6.0,Jaluit,جالويت,জালুইট,Jaluit,Jaluit Island,Jaluit,Jaluit,Τζαλουίτ,जलुइत,Jaluit,Jaluit,Jaluit,ヤルート島,잘루이트,Jaluit,Jaluit,Jaluit,атолл Джалуит,Jaluit,Jaluit,Đảo Jaluit,加路伊岛,Q27577106,1159104765,جالیوت,האי ג'אלויט,Джалуіт,جالوئت,加路伊島
5,island,Mili,,,6.107334000,171.725875000,Oceania,Micronesia,6.0,,ميلي,মিলি,Mili,Mili Atoll,Mili,Mili,Μίλι,मिली,Mili,Mili,Mili,ミリ島,밀리,Mili,Mili,Mili,атолл Мили,Mili,Mili,Đảo Mili,米利环礁,,1159104767,میلی,האי מיל,Мілі,ملی,密里
5,island,Majuro,,,7.118009000,171.159743000,Oceania,Micronesia,6.0,Majuro,ماجورو,মাজুরো,Majuro-Atoll,Majuro Island,Majuro,Majuro,Ματζούρο,माजुरो,Majuro,Majuro,Majuro,マジュロ,마주로,Majuro,Majuro,Majuro,атолл Маджуро,Majuro Island,Majuro,Đảo Majuro,马朱罗,Q27577464,1159104769,ماجورو,מקאמבה,Маджуро,ماجورو,馬久羅島
5,island,Ailinglapalap,,,7.276392000,168.596926000,Oceania,Micronesia,6.0,Ailinglapalap,أيلينجلابلاب,আইলিংলাপালাপ,Ailinglaplap,Ailinglaplap,Ailinglapalap,Ailinglaplap,Αϊλινγκλαπαλάπ,ऐलिंगलैपालैप,Ailinglapalap,Ailinglapalap,Ailinglapalap,アイリングラップ環礁,아일링라팔랍,Ailinglapalap,Ailinglapalap,Ailinglapalap,Аилинглапалап,Ailinglaplap,Ailinglapalap,Đảo Ailinglapalap,马绍尔岛,Q27577510,1159104773,آیلینگلاپالاپ,האי איילינגלאפלאפ,Аілінглапалап,ایلینگاپالپ,艾林拉帕拉普環礁
5,island,Kwajalein,,,8.746619000,167.735072000,Oceania,Micronesia,6.0,,كواجالين,কোওয়াজালেন,Kwajalein,Kwajalein Island,Kwajalein,Kwajalein,Κβατζαλέιν,क्वाजालीन,Kwajalein,Kwajalein,Kwajalein,クェゼリン,콰잘레인,Kwajalein,Kwajalein,Kwajalein,атолл Меншикова,Kwajaleinatollen,Kwajalein,Đảo Kwajalein,夸贾林岛,,1159104775,کواجالین,האי קוואייג'לין,Кваджалейн,کواجلاین,瓜加林島
5,island,Rongelap,,,11.164329000,166.869876000,Oceania,Micronesia,6.0,,رونغلاب,রঞ্জল্যাপ,Rongelap-Atoll,Rongelap Atoll,Rongelap,Rongelap,Ρόνγκελαπ,रौंगेलैप,Rongelap,Rongelap,Rongelap,ロンゲラップ,롱겔랍,Rongelap,Rongelap,Rongelap,атолл Ронгелап,Rongelap,Rongelap,Đảo Rongelap,朗格拉普岛,,1159104777,رونگلاپ,האי רונגלאפ,Ронглап,رونگےلیپ,朗格拉普島
5,island,Bikini,,,11.639231000,165.550698000,Oceania,Micronesia,6.0,Bikini,بيكيني,বিকিনি,Bikini-Atoll,Bikini Atoll,Bikini,Bikini,Μπικίνι,बिकीनी,Bikini,Bikini,Bikini,ビキニ島,비키니,Bikini,Bikini,Bikini,Бикини,Bikini,Bikini,Đảo Bikini,比基尼岛,Q27577613,1159104779,بیکینی,האי ביקיני,Бікіні,بکنی,比基尼島
5,cape,Cape Reinga,,,-34.432767000,172.728503000,Oceania,New Zealand,6.0,Cape Reinga,رأس رينيغا,কেপ রেগিনা,Cape Reinga,Cape Reinga / Te Rerenga Wairua,Cabo Reinga,cap Reinga,Ακρωτήριο Ρέινγκα,केप रींगा,Reinga-fok,Tanjung Reinga,Capo Reinga,レインガ岬,레잉가곶,Cape Reinga,Przylądek Reinga,Cabo Reinga,Реинга,Kap Reinga,Reinga Burnu,Mũi Reinga,雷恩加角,Q1034494,1159104781,دماغه رینگا,קייפ ריאנגה,мис Реінга,کیپ رینگا,雷恩加角
5,island,Kanton Island,,,-2.757106000,-171.717033000,Oceania,Polynesia,6.0,Kanton,جزيرة كانتون,কান্টন আইল্যান্ড,Kanton,Kanton Island,Kanton,Canton,Νήσος Καντών,कैंटन द्वीप,Kanton-sziget,Pulau Kanton,Canton,カントン島,캔턴섬,Kanton,Kanton,Ilha Kanton,Кантон,Kantonatollen,Kanton Adası,Đảo Kanton,阿巴里靈阿環礁,Q30895,1159104819,جزیره کانتون,קנטון,Кантон,کینٹن آئیلینڈ,阿巴里靈阿環礁
5,island,Tabuaeran,,Fanning I.,3.866545000,-159.326781000,Oceania,Polynesia,6.0,,تابوارين,তাবুয়ারান,Tabuaeran,Tabuaeran,Tabuaeran,Tabuaeran,Ταμπουαεράν,तबुआरान,Tabuaeran,Tabuaeran,Tabuaeran,タブアエラン島,타부에란,Tabuaeran,Tabuaeran,Tabuaeran,атолл Табуаэран,Tabuaeran,Tabuaeran,Đảo Tabuaeran,塔布阿埃兰环礁,,1159104821,تابوآئران,האי טבוארן,Табуаеран,تابوایران,塔布埃蘭島
5,island,Malden Island,,,-4.042491000,-154.983478000,Oceania,Polynesia,6.0,Malden,جزيرة مالدن,মালদেন আইল্যান্ড,Malden,Malden Island,Isla Malden,Malden,Μάλντεν Νήσος,माल्देन द्वीप,Malden-sziget,Pulau Malden,Malden,マルデン島,몰덴 섬,Malden,Malden Island,Ilha Malden,Молден,Malden Island,Malden Adası,Đảo Malden,莫爾登島,Q532590,1159104823,جزیره مالدن,מאלדן,Молден,مالدین جزیرہ,莫爾登島
5,island,Rarotonga,,,-21.201867000,-159.797637000,Oceania,Polynesia,6.0,Rarotonga,راروتونغا,রারোটোঙ্গা,Rarotonga,Rarotonga,Rarotonga,Rarotonga,Ραροτόνγκα,रैरोटोंगा,Rarotonga,Rarotonga,Rarotonga,ラロトンガ島,라로통가섬,Rarotonga,Rarotonga,Rarotonga,Раротонга,Rarotonga,Rarotonga,Rarotonga,拉罗汤加岛,Q471793,1159104827,راروتونگا,ררוטונגה,Раротонга,راروتونجا,拉羅湯加島
5,island,Rangiroa,,,-15.204600000,-147.773967000,Oceania,Polynesia,6.0,Rangiroa,رانجيروا,রঙ্গিরোয়া,Rangiroa,Rangiroa,Rangiroa,Rangiroa,Ρανγκιρόα,रांगिरो,Rangiroa,Rangiroa,Rangiroa,ランギロア環礁,랑이로아 환초,Rangiroa,Rangiroa,Rangiroa,Рангироа,Rangiroa,Rangiroa,Đảo Rangiroa,伦吉拉环礁,Q757399,1159104829,رانگیروا,האי ראנגירואה,Рангіроа,رانگیروا,倫吉拉環礁
5,island,Funafuti,,,-8.491577000,179.198413000,Oceania,Polynesia,6.0,Funafuti,فونافوتي,ফুনাফুটি,Fongafale,Fongafale,Fongafale,Fongafale,Φονγκαφάλε,फ़नाफ़ुटि,Fongafale,Funafuti,Fongafale,フォンガファレ島,푸나푸티,Fongafale,Fongafale,Fongafale,Фонгафале,Fongafale,Fongafale,Đảo Funafuti,风加法列,Q731947,1159104831,فونافوتی,פונגפייל,Фунафуті,فونافوٹی,風加法列
5,island,Saint Croix,,,17.762944000,-64.763088000,North America,West Indies,6.0,St. Croix,سينت كروا,সেন্ট ক্রিক্স,Saint Croix,Saint Croix,Saint Croix,Sainte-Croix,Σαιντ Κρουά,सेंट क्रोइक्स,Saint Croix,Santo Croix,Saint Croix,セント・クロイ島,세인트크로이섬,Saint Croix,Saint Croix,Saint Croix,Санта-Крус,Saint Croix,Saint Croix,Saint Croix,圣克洛伊岛,Q642481,1159104837,سنت کرویکس، جزایر ویرجین ایالات متحده,סנט קרואה,Санта-Крус,سینٹ کروی، امریکی جزائر ورجن,聖克洛伊島
5,island,Grand Cayman,,,19.315829000,-81.271416000,North America,West Indies,6.0,Grand Cayman,جراند كايمان,গ্র্যান্ড কেম্যান,Grand Cayman,Grand Cayman,Gran Caimán,Grand Cayman,Γκραντ Κέιμαν,ग्रैंड केमैन,Grand Cayman,Grand Cayman,Grand Cayman,グランドケイマン,그랜드 케이맨,Grand Cayman,Wielki Kajman,Grande Caimão,Большой Кайман,Grand Cayman,Grand Cayman,Đảo Grand Cayman,大开曼,Q737765,1159104839,گرند کیمن,גראנד קיימן,Великий Кайман,گرینڈ کیمین,大開曼
5,island,San Salvador,,,24.052793000,-74.492848000,North America,West Indies,6.0,San Salvador,جزيرة سان سلفادور,সান সালভাদর আইল্যান্ড,San Salvador,San Salvador Island,San Salvador,San Salvador,Σαν Σαλβαντόρ,सैन साल्वाडोर द्वीप,San Salvador,Pulau San Salvador,San Salvador,サン・サルバドル島,산살바도르섬,San Salvador,San Salvador,San Salvador,Сан-Сальвадор,San Salvador,San Salvador Adaları,Đảo San Salvador,圣萨尔瓦多岛,Q845540,1159104841,جزیره سان سالوادور,סן סלבדור,Сан-Сальвадор,جزیرہ سان سلواڈور,聖薩爾瓦多島
5,island,Grenada,,,12.105978000,-61.723079000,North America,West Indies,6.0,Grenada,غرينادا,গ্রেনাডা,Grenada,Grenada,Grenada,Grenade,Γρενάδα,ग्रेनाडा,Grenada,Grenada,Grenada,グレナダ島,그레나다,Grenada,Grenada,Grenada,Гренада,Grenada,Grenada,Đảo Grenada,格林纳达岛,Q3116419,1159104845,گرنادا,האי גרנדה,Гренада,گریناڈا,格林纳达岛
5,island,Barbuda,,,17.622525000,-61.789243000,North America,West Indies,6.0,Barbuda,باربودا,বারবুডা,Barbuda,Barbuda,Barbuda,Barbuda,Μπαρμπούντα,बारबूडा,Barbuda,Barbuda,Barbuda,バーブーダ島,바부다섬,Barbuda,Barbuda,Barbuda,Барбуда,Barbuda,Barbuda,Barbuda,巴布达岛,Q238752,1159104847,بارابودا,ברבודה,Барбуда,باربوڈا,巴布達島
5,island,Antigua,,,17.040441000,-61.775982000,North America,West Indies,6.0,Antigua,أنتيغوا,আন্টিগুয়া,Antigua,Antigua,Isla Antigua,Antigua,Αντίγκουα,एंटीगा,Antigua,Antigua,Antigua,アンティグア島,앤티가섬,Antigua,Antigua,Antígua,Антигуа,Antigua,Antigua,Antigua,安提瓜島,Q316390,1159104849,آنتیگوا,אנטיגואה,Антигуа,اینٹیگوا,安地卡島
5,island,Guadeloupe,,,16.180583000,-61.656947000,North America,West Indies,6.0,Guadeloupe,غوادالوبي,গুয়াদেলৌপে,Guadeloupe,Guadeloupe,Isla Guadalupe,Guadeloupe,Γουαδελούπη,गुआडालूपे,Guadeloupe,Guadeloupe,Guadalupa,グアドループ島,과들루프,Guadeloupe,Gwadelupa,Guadalupe,Гваделупа,Guadeloupe,Guadeloupe,Đảo Guadeloupe,瓜德罗普岛,Q3118683,1159104851,گوآدلوپ,האי גוואדלופ,Гваделупа,گواڈیلوپ,瓜德羅普島
5,island,Dominica,,,15.452943000,-61.352652000,North America,West Indies,6.0,Dominica,دومينيكا,ডোমিনিকা,Dominica,Dominika,Dominica,Dominique,Ντομίνικα,डोमिनिका,Dominika,Dominica,Dominica,ドミニカ島,도미니카,Dominica,Dominika,Dominica,Доминика,Dominica,Dominica,Đảo Dominica,多米尼加岛,Q4165857,1159104853,دومینیکا,האי דומיניקה,Домініка,ڈومینیکا,多米尼克島
5,island,Martinique,,,14.672462000,-61.008715000,North America,West Indies,6.0,Martinique,مارتينيك,মার্তিনিক,Martinique,Martinique,Martinica,Martinique,Μαρτινίκα,मार्टीनिक,Martinique,Martinik,Martinica,マルティニーク,마르티니크,Martinique,Martynika,Martinica,Мартиника,Martinique,Martinik,Martinique,马提尼克,Q17054,1159104855,مارتینیک,מרטיניק,Мартиніка,مارٹینیک,馬丁尼克
5,island,Saint Lucia,,,13.918332000,-60.982225000,North America,West Indies,6.0,Saint Lucia,سان لوسيا,সেন্ট লুসিয়া,St. Lucia,Saint Lucia,Santa Lucía,Sainte-Lucie,Αγία Λουκία,सेंट लूसिया,Saint Lucia,Saint Lucia,Saint Lucia,セントルシア,세인트 루시아,Saint Lucia,Saint Lucia,Santa Lúcia,остров Сент-Люсия,Saint Lucia,Saint Lucia,Đảo Saint Lucia,圣卢西亚岛,Q27508090,1159104857,سنت لوسیا,האי סנט לוסיה,Сан-Лючиа,سینٹ لوشیا,圣卢西亚岛
5,island,Saint Vincent,,,13.270131000,-61.207143000,North America,West Indies,6.0,Saint Vincent,سانت فينسنت,সেন্ট ভিনসেন্ট,St. Vincent,Saint Vincent,Isla de San Vicente,Saint-Vincent,Άγιος Βικέντιος,सेंट विंसेंट,Saint Vincent,Saint Vincent,Saint Vincent,セイント・ヴィンセント島,세인트빈센트섬,Saint Vincent,Saint Vincent,Ilha de São Vicente,Сент-Винсент,Saint Vincent,Saint Vincent,Đảo Saint Vincent,圣文森特岛,Q379656,1159104859,سنت وینسنت,סנט וינסנט,Сент-Вінсент,سینٹ ونسنٹ,圣文森特岛
5,island,Barbados,,,13.164326000,-59.566742000,North America,West Indies,6.0,Barbados,باربادوس,বার্বাদোস,Barbados,Barbados,Barbados,Barbade,Μπαρμπάντος,बारबाडोस,Barbados,Barbados,Barbados,バルバドス島,바베이도스,Barbados,Barbados,Barbados,Барбадос,Barbados,Barbados,Đảo Barbados,巴巴多斯,Q30151210,1159104863,باربادوس,ברבדוס,Барбадос,بارباڈوس,巴貝多
5,island,Tobago,,,11.259334000,-60.677992000,South America,West Indies,6.0,Tobago,توباغو,টোবাগো,Tobago,Tobago,Tobago,Tobago,Τομπάγκο,टोबैगो,Tobago,Tobago,Tobago,トバゴ島,토바고섬,Tobago,Tobago,Tobago,Тобаго,Tobago,Tobago,Tobago,多巴哥岛,Q185111,1159104865,توباگو,טובגו,Тобаго,ٹوباگو,多巴哥島
5,island,Margarita,,,10.981467000,-64.051401000,South America,West Indies,6.0,Margarita,جزيرة مارغريتا,মারগারিতা,Isla Margarita,Margarita Island,Isla de Margarita,île Margarita,Νήσος Μαργαρίτα,मार्गरीटा,Margarita,Isla Margarita,Margarita,マルガリータ島,마르가리타섬,Isla Margarita,Margarita,Ilha de Margarita,Маргарита,Isla Margarita,Margarita,Đảo Margarita,玛格丽塔岛,Q334738,1159104867,جزیره مارگاریتا,מרגריטה,Маргарита,مارگریٹا,瑪格麗塔島
5,island,Curaçao,,,12.185355000,-68.999109000,North America,West Indies,6.0,Curaçao,كوراساو,কিউরাসাও,Curaçao,Curaçao,Curazao,Curaçao,Κουρασάο,कुराकाओ,Curaçao,Curaçao,Curaçao,キュラソー,퀴라소,Curaçao,Curaçao,Curaçao,Кюрасао,Curaçao,Curaçao,Curaçao,库拉索,Q25279,1159104869,کوراسائو,קוראסאו,Кюрасао,کیوراساؤ,古拉索
5,island,Aruba,,,12.502849000,-69.964880000,North America,West Indies,6.0,Aruba,أروبا,আরুবা,Aruba,Aruba,Aruba,Aruba,Αρούμπα,अरूबा,Aruba,Aruba,Aruba,アルバ,아루바,Aruba,Aruba,Aruba,Аруба,Aruba,Aruba,Aruba,阿鲁巴,Q21203,1159104871,آروبا,ארובה,Аруба,اروبا,阿魯巴
5,cape,Ra’s Banäs,,,23.950592000,35.778059000,Africa,,6.0,,رأس باناس,রা'স বানাস,Ras Banas,Ras Banas,Ra’s Banäs,Râs Banas,Ρα'ς Μπανάς,रास बनास,Ra’s Banäs,Ras Banas,Ra’s Banäs,ラスバナス,라스 바나스,Ras Banas,Banäs,Ra’s Banäs,мыс Рас-Банас,Ra’s Banäs,Ra’s Banäs,Mũi Ra’s Banäs,巴纳斯角,,1159104873,رأس باناس,כף באנאס,Рас-Банас,راس باناس,巴納斯角
5,cape,Ponta das Salinas,,,-12.832908000,12.928991000,Africa,,6.0,,بونتا داس ساليناس,পন্তা দাস সালিনাস,Ponta das Salinas,Ponta das Salinas,Ponta das Salinas,Ponta das Salinas,Πόντα ντας Σαλίνας,पोंटा दास सेलिनास,Ponta das Salinas-fok,Ponta das Salinas,Ponta das Salinas,サリナス岬,폰타 다스 살리나스,Ponta das Salinas,Ponta das Salinas,Ponta das Salinas,,Ponta das Salinas,Ponta das Salinas,Mũi Salinas,萨利纳斯角,,1159104875,پونتا داس سالیناس,פונטה דאס סאלינאס,Понта-дас-Салінас,پونٹا داس سالیناس,薩利納斯角
5,cape,Ponta das Palmeirinhas,,,-9.071387000,12.999549000,Africa,,6.0,,بونتا داس بالميرينهاس,পন্তা দাস পালমেইরিনহাস,Ponta das Palmeirinhas,Ponta das Palmeirinhas,Ponta das Palmeirinhas,Ponta das Palmeirinhas,Πόντα ντας Παλμεϊρίνιας,पोंटा दास पाल्मिरिनहास,Ponta das Palmeirinhas-fok,Ponta das Palmeirinhas,Ponta das Palmeirinhas,パルメイリナス岬,폰타 다스 팔메이리냐스,Ponta das Palmeirinhas,Ponta das Palmeirinhas,Ponta das Palmeirinhas,,Ponta das Palmeirinhas,Ponta das Palmeirinhas,Mũi Palmeirinhas,帕尔梅拉斯角,,1159104877,پونتا داس پالمرینهاس,פונטה דאס פאלמיירינהאס,Понта-дас-Палмейрінхас,پونٹا داس پالمیریناس,帕梅里亞斯角
5,cape,Cabo Bojador,,,26.157836000,-14.473111000,Africa,,6.0,Cabo Bojador,رأس بوجادور,কাবো বোজাদোর,Kap Bojador,Cape Bojador,Cabo Bojador,cap Boujdour,Κάμπο Μποχαντόρ,काबो बोजादोर,Cabo Bojador,Tanjung Bojador,Capo Bojador,カボ・ボハドール,보자도르곶,Kaap Bojador,Ras Budżdur,Cabo Bojador,Буждур,Kap Bojador,Cabo Bojador,Mũi Bojador,博哈多爾角,Q185222,1159104881,رأس بوجادور,הקפת כף בוז'דור,Буждур,کابو بوجاڈور,博哈多爾角
5,cape,Cape Comorin,,,8.143554000,77.471497000,Asia,,6.0,Cape Comorin,رأس كومورين,কন্যাকুমারী,Kap Komorin,Cape Comorin,Cabo Comorin,cap Comorin,Ακρωτήριο Κομορίν,केप कोमोरिन,Comorin-fok,Tanjung Comorin,Capo Comorin,コモリン岬,케이프 코모린,Kanyakumari,Komoryn,Cabo Comorim,Коморин,Kap Comorin,Comorin Burnu,Mũi Comorin,科摩林角,Q946721,1159104929,دماغه کومورین,כף קומורין,мик Коморин,کیپ کومورین,科摩林角
5,cape,Dondra Head,,,5.947528000,80.616321000,Asia,,6.0,Dondra Head,رأس دوندرا,দোন্দ্রা হেড,Dondra Head,Dondra Head,Dondra,Dondra,Ντόντρα Χεντ,डोंड्रा हेड,Dondra Head,Dondra,Dondra Head,ドンドラヘッド,돈드라 헤드,Dondra,Dewundara Tuduwa,Cabo Dondra,Дондра Хэд,Dondra Head,Dondra Head,Mũi Dondra,栋德勒角,Q2426307,1159104931,دوندرا هد,כף דונדרה הד,Дондра,ڈونڈرا ہیڈ,棟德勒角
5,cape,Cape Yelizavety,,,54.416083000,142.720445000,Asia,,6.0,Cape Yelizavety,رأس يلزافيتي,কেপ ইয়লিজাভেতি,Cape Elizabeth,Cape Elizabeth,Cabo Yelizavety,cap Élisabeth,Ακρωτήριο Γελιζαβέτι,केप येलिज़ावेटी,YelizavetyCape Yelizavety,Tanjung Yelizavety,Capo Elizaveta,エリザベス岬,케이프 옐리자베티,Mis Elizaveti,Przylądek Elżbiety,Cabo Elizabeth,Мыс Елизаветы,Kap Jelizavety,Yelizavety Burnu,Mũi Yelizavety,耶利扎维蒂角,Q2469144,1159104935,دماغه یلیزاوتی,כף יליזאווטי,Мис Єлизавети,کیپ ییلیزاویٹی,耶利扎維帝角
5,cape,Pt. Yuzhnyy,,,57.733572000,156.796426000,Asia,,6.0,,قمة يوزهنو,পয়েন্ট ইউঝন্য,Hafen Yuzhny,Mys Yuzhnyy,Puerto de Yuzhnyy,Port Yuzhnyi,Πτ. Γιούζνιι,पॉइंट योज़्नी,Port Juzsnij-fok,Pt. Yuzhnyy,Punta Yuzhnyy,ユザニー岬,푼타 유즈니,Mys Yuzhnyy,Yuzhnyy,Ponta Yuzhny,мыс Южный,Kap Yuzhnyy,Pt. Yuzhnyy,Mũi Yuzhnyy,尤日内角,,1159104937,بندر یوژنی,פוינט יוז'ניי,мис Південний,PT. یوزہنی,猶日尼角
5,cape,Cape Sata,,,31.026941000,130.695089000,Asia,,6.0,Cape Sata,رأس ساتا,কেপ সাতা,Cape Sata,Cape Sata,Cabo Sata,cap Sata,Ακρωτήριο Σάτα,केप सैटा,Sata-fok,Tanjung Sata,Capo Sata,佐多岬,사타곶,Cape Sata,Przylądek Sata,Cabo Sata,мыс Сата,Kap Sata,Sata Burnu,Mũi Sata,佐多岬,Q431595,1159104939,دماغه ساتا,כף סאטה,мис Сата,کیپ سٹاٹا,佐多岬
5,cape,Cape Aniva,,,46.081706000,143.434871000,Asia,,6.0,Cape Aniva,رأس أنيفا,কেপ আনিভা,Kap Aniwa,Cape Aniva,Cabo Aniva,cap Aniva,Ακρωτήριο Άνιβα,केप एनिवा,Aniva-fok,Tanjung Aniva,Capo Aniva,中知床岬,케이프 아니바,Aniva,Przylądek Aniva,Cabo Aniva,мыс Анива,Aniva,Aniva Burnu,Mũi Aniva,阿尼瓦岬,Q1083875,1159104941,دماغه انیوا,כף אניבה,Мис Аніва,کیپ آنیوا,阿尼瓦岬
5,cape,Cape Terpeniya,,,48.669280000,144.712582000,Asia,,6.0,Cape Terpeniya,رأس تيربنيا,কেপ তেরপেনিয়া,Kap Terpeniya,Terpeniya Peninsula,Cabo Terpeniya,cap Terpenia,Ακρωτήριο Τερπενίγια,केप टेरपेनिया,Terpeniya-fok,Tanjung Terpeniya,Capo Terpenija,北知床岬,케이프 테르페니야,Poluostrov Terpeniya,Cape Terpeniya,Cabo Terpeniya,Мыс Терпения,Kap Terpenija,Terpeniya Burnu,Mũi Terpeniya,北知床岬,Q4309490,1159104943,دماغه ترپنیا,כף טרפניה,мис Терпіння,کیپ ٹرپینیا,北知床岬
5,cape,Cape Lopatka,,,50.914155000,156.651536000,Asia,,6.0,Cape Lopatka,رأس لوباتكا,কেপ লোপাটকা,Kap Lopatka,Cape Lopatka,Cabo Lopatka,cap Lopatka,Ακρωτήριο Λοπάτκα,केप लोपाटका,Lopatka-fok,Tanjung Lopatka,capo Lopatka,ロパートカ岬,로팟카곶,Kaap Lopatka,Łopatka,Cabo Lopatka,Лопатка,Kap Lopatka,Lopatka Burnu,Mũi Lopatka,洛帕特卡角,Q1199044,1159104945,دماغه لوپاتکا,כף לופאטקה,Лопатка,کیپ لوپاٹکا,洛帕特卡角
5,cape,Cape Ozernoy,,,57.770800000,163.246685000,Asia,,6.0,,رأس أوزيروني,কেপ ওজেরনয়,Cape Ozernoy,Ozernoy Peninsula,Cabo Ozernoy,Cape Ozernoy,Ακρωτήριο Οζερνόι,केप ओज़र्नॉय,Ozernoy-fok,Tanjung Ozernoy,Capo Ozernoj,オジョールノイ岬,케이프 오제르노이,Ozernoy (kaap),Przylądek Ozernoy,Cabo Ozernoy,Озерной мыс,Kap Ozernoj,Ozernoy Burnu,Mũi Ozernoy,奥泽诺伊角,,1159104947,دماغه اوزرنوی,כף אוזרנוי,мис Озерний,کیپ اوزرنوئے,歐澤諾伊角
5,cape,Cape Olyutorskiy,,,59.960807000,170.312651000,Asia,,6.0,Cape Olyutorskiy,رأس أوليوتورسكي,কেপ ওল্যুতোরস্কিয়,Cape Olyutorskiy,Cape Olyutorsky,Cabo Olyutorskiy,cap Olioutorski,Ακρωτήριο Ολυοτόρσκι,केप ओल्युटोर्स्की,Oljutorszkij-fok,Tanjung Olyutorskiy,Penisola Oljutorskij,オリュトルスキー岬,케이프 올류토르스키,Kaap Oljoetorski,Przylądek Olutorski,Cabo Olyutorskiy,Олюторский,Kap Oljutorskij,Olyutorskiy Burnu,Mũi Olyutorskiy,奥柳托尔斯基角,Q3463471,1159104949,دماغه اولیوتورسکی,כף אוליטורסקי,мис Олюторський,کیپ اولیوٹورسکی,奧留托斯基角
5,cape,Cape Navarin,,,62.327239000,179.074225000,Asia,,6.0,Cape Navarin,رأس نافارين,কেপ নাভারিন,Kap Navarin,Cape Navarin,Cabo Navarin,Mys Navarin,Ακρωτήριο Ναυαρίνου,केप नवारिन,Navarin-fok,Tanjung Navarin,Capo Navarin,ナバリン岬,케이프 나바린,Capo Navarin,Przylądek Nawarin,Cabo Navarin,Наварин,Kap Navarin,Navarin Burnu,Mũi Navarin,纳瓦林角,Q3562501,1159104953,دماغه ناوارین,כף נבארין,мис Наварін,کیپ نیوارن,納瓦林角
5,cape,Cape Lopatka,,,71.907853000,150.066042000,Asia,,6.0,Cape Lopatka,رأس لوباتكا,কেপ লোপাটকা,Kap Lopatka,Cape Lopatka,Cabo Lopatka,cap Lopatka,Ακρωτήριο Λοπάτκα,केप लोपाटका,Lopatka-fok,Tanjung Lopatka,capo Lopatka,ロパートカ岬,로팟카곶,Kaap Lopatka,Łopatka,Cabo Lopatka,Лопатка,Kap Lopatka,Lopatka Burnu,Mũi Lopatka,洛帕特卡角,Q1199044,1159104955,دماغه لوپاتکا,כף לופאטקה,Лопатка,کیپ لوپاٹکا,洛帕特卡角
5,cape,Cape Ince,,,42.084312000,34.983358000,Asia,,6.0,,رأس إنس,কেপ ইন্স,Cape Ince,Cape İnce,Cabo Ince,Cape Jaffa,Ακρωτήριο Ίντσε,केप इंस,Ince-fok,Tanjung Ince,Capo Ince,インジェ岬,케이프 인스,Kaap Ince,Cape Ince,Cabo İnce,мыс Индже,Kap Ince,Ince Burnu,Mũi Ince,因斯角,,1159104957,دماغه اینک,כף אינצה,мис Інке,کیپ انس,因斯角
5,cape,Ra’s Fartak,,,15.677412000,52.229105000,Asia,,6.0,,رأس فرتك,রা'স ফার্তাক,Ra’s Fartak,Ra’s Fartak,Ra’s Fartak,Ra’s Fartak,Ρα'ς Φαρτάκ,रास फार्टक,Ra’s Fartak,Ras Fartak,Ra’s Fartak,ラスファルタク,라스 파르탁,Ra’s Fartak,Fartak,Ra’s Fartak,мыс Рас-Фартак,Ra’s Fartak,Ra’s Fartak,Mũi Ra’s Fartak,法塔克角,,1159104959,رأس فارتاک,כף פארטאק,Рас-Фартак,راس فرتاک,法塔克角
5,cape,Ras Sharbatat,,,18.164534000,56.568270000,Asia,,6.0,,رأس شربتات,রাস শরবতাত,Ras Sharbatat,Ras ash Sharbatat,Ras Sharbatat,Ras Sharbatat,Ρας Σαρμπατάτ,रास शरबतात,Ras Sharbatat,Ras Sharbatat,Ras Sharbatat,ラスシャルバタト,라스 샤르바타트,Ras ash-Sharbatat,Ras Sharbatat,Ras ash Sharbatat,мыс Шарбатат,Ras Sharbatat,Ras Sharbatat,Mũi Ras Sharbatat,沙巴塔角,,1159104961,راس شارباتات,כף שרבטאט,Рас-Шарбатат,راس شرباتات,拉斯沙巴塔角
5,cape,Ra's al Had,,,22.530158000,59.849134000,Asia,,6.0,Ra's al Had,رأس الحد,রা'স আল হাদ,Ras al-Hadd,Ras al Hadd,Ra's al Had,Ras al Hadd,Ρας αλ Χαντ,रास अल हद,Ra's al Had,Ras Al-Hadd,Ra's al Had,ラス・アル・ハッド,라스 알 하드,Ras Al Hadd,Al Hadd,Ra's al Had,Эль-Хадд,Ra's al Had,Ra's al Had,Mũi Ra's al Had,哈德角,Q1329208,1159104963,رأس الحد,כף אל חד,Рас-аль-Хад,راس ال حد,哈德角
5,island,Hachijō-jima,,,33.109796000,139.804903000,Asia,,6.0,Hachijō-jima,هاتشيجو جيما,হাচিজো-জিমা,Hachijō-jima,Hachijō-jima,Hachijōjima,Hachijō-jima,Χατσίγιο-τζίμα,हचिजो-जिमा,Hachijō-jima,Hachijō-jima,Hachijō-jima,八丈島,하치조섬,Hachijojima,Hachijō-jima,Hachijo-jima,Хатидзёдзима,Hachijō-jima,Hachijōjima,Hachijō-jima,八丈岛,Q1191120,1159104965,هاچیجوجیما,האי האצ'יג'ו-ג'ימה,Острів Хатідзьо,ہاچیجو جیما,八丈島
5,cape,Nordkapp,,,71.183370000,25.662398000,Europe,,6.0,Nordkapp,رأس الشمال النرويجي,নর্ডকাপ,Nordkap,North Cape,Cabo Norte,cap Nord,Βόρειο Ακρωτήριο,नॉर्डकैप,Északi-fok,Tanjung Utara,Capo Nord,ノールカップ,노스케이프,Noordkaap,Przylądek Północny,Cabo Norte,Нордкап,Nordkap,Nordkapp,Mũi Nordkapp,北角,Q4069,1159104971,دماغه شمالی,נורדקאפ,Нордкап,ناردکاپ,北角
5,cape,Cabo de São Vicente,,,37.038304000,-8.969391000,Europe,,6.0,Cabo de São Vicente,كابو دي ساو فيسنتي,কাবো দে সাও ভিকেন্তে,Cabo de São Vicente,Cape St. Vincent,Cabo de San Vicente,cap Saint-Vincent,Κάμπο ντε Σάο Βισέντε,काबो द साओ विसेंटे,Cabo de São Vicente,Tanjung Sao Vicente,Cabo de São Vicente,サン・ヴィセンテ岬,카보 데 상 비센테,Kaap Sint-Vincent,Przylądek Świętego Wincentego,Cabo de São Vicente,Сан-Висенте,Kap Sankt Vincent,Cabo de São Vicente,Mũi São Vicente,圣维森特角,Q4103,1159104973,کابو دو سائو ویسنته,כף סנט וינסנט,Мис Сен-Вінсент,کابو ڈی ساؤ ویسینٹے,圣维森特角
5,cape,Cabo Fisterra,,,42.952418000,-9.267837000,Europe,,6.0,Cabo Fisterra,كابو فيستيرا,কাবো ফিস্তেররা,Kap Finisterre,Cape Finisterre,Cabo Finisterre,cap Finisterre,Κάμπο Φίστερα,काबो फिस्टर्रा,Finisterre-fok,Tanjung Fisterra,Cabo Fisterra,フィニステレ岬,카보 피스테라,Cabo Finisterre,Cabo Fisterra,Cabo Finisterra,Финистерре,Kap Finisterre,Cabo Fisterra,Mũi Fisterra,非尼斯泰尔角,Q1136198,1159104975,کابو فیسترا,כף פיסטררה,Фіністерре,کابو فسٹیئرا,非尼斯泰尔角
5,cape,Cape San Blas,,,29.713967000,-85.270961000,North America,,6.0,Cape San Blas,رأس سان بلاس,কেপ সান ব্লাস,Cape San Blas,Cape San Blas,Cabo San Blas,Cape San Blas,Ακρωτήριο Σαν Μπλας,केप सैन ब्लास,San Blas-fok,Tanjung San Blas,Cape San Blas,サン・ブラス岬,케이프 산 블라스,Cape San Blas,Przylądek San Blas,Cabo San Blas,мыс Сан-Блас,Cape San Blas,San Blas Burnu,Mũi San Blas,聖布拉斯角,Q5035028,1159104977,دماغه سان بلاس,כף סן בלאס,мис Сан-Блас,کیپ سان بلاس,聖布拉斯角
5,cape,Cape Sable,,,43.469097000,-65.610769000,North America,,6.0,Cape Sable,رأس سابل,কেপ স্যাবেল,Cape Sable,Cape Sable,Cabo Sable,Cape Sable,Ακρωτήριο Σέιμπλ,केप सेबल,Sable-fok,Tanjung Sable,Cape Sable,セーブル岬,케이프 세이블,Cape Sable,Cape Sable,Cabo Sable,мыс Сейбл,Cape Sable,Sable Burnu,Mũi Sable,塞布尔角,,1159104979,دماغه سیبل,כף סייבל,мис Сейбл,کیپ سیبل,塞布爾角
5,cape,Cape Bauld,,,51.568576000,-55.430306000,North America,,6.0,,رأس بولد,কেপ বাউল্ড,Cape Bauld,Cape Bauld,Cabo Bauld,Cape Bauld,Ακρωτήριο Μπολντ,केप बाउल्ड,Bauld-fok,Tanjung Bauld,Capo Bauld,ボールド岬,케이프 볼드,Cape Bauld,Przylądek Bauld,Cabo Bauld,мыс Болд,Cape Bauld,Bauld Burnu,Mũi Bauld,鲍尔德角,,1159104981,دماغه بالد,כף באולד,мис Баулд,کیپ بالڈ,鮑爾德角
5,cape,Cape Fear,,,33.867949000,-77.990568000,North America,,6.0,Cape Fear,رأس فير,কেপ ফিয়ার,Cape Fear,Cape Fear,Cape Fear,Cape Fear,Ακρωτήριο του Φόβου,केप फियर,Fear-fok,Tanjung Fear,Cape Fear,ケープフェア,케이프 피어,Cape Fear,Przylądek Cape Fear,Cabo Fear,Кейп-Фир,Cape Fear,Fear Burnu,Mũi Fear,菲尔角,Q1034413,1159104983,دماغه فیر,כף פיר,Мис жаху,کیپ فیئر,非爾角
5,island,I. Guadalupe,,,29.052552000,-118.317465000,Seven seas (open ocean),North Pacific Ocean,6.0,I. Guadalupe,جزيرة غوادالوبي,আই. গুয়াদালুপে,Guadalupe,Guadalupe Island,Isla Guadalupe,île Guadalupe,Νήσος Γουαδαλούπη,द्वीप ग्वाडालूपे,Guadalupe-sziget,Pulau Guadalupe,Guadalupe,グアダルーペ島,과달루페섬,Isla Guadalupe,Guadalupe,Ilha de Guadalupe,Гуадалупе,Guadalupeön,I. Guadalupe,Đảo Guadalupe,瓜达卢普岛,Q853909,1159104985,جزیره گوادلوپ,גואדלופה,Гвадалупе,I. گواڈالوپے,瓜達盧普島
5,island,Miquelon,,,46.929526000,-56.329884000,North America,,6.0,Miquelon,ميكلون,মিকুইলন,Sankt Pierre und Miquelon,Miquelon,Isla de Miquelón,Miquelon,Μικελόν,मिकेलॉन,Miquelon,Miquelon,Miquelon,ミクロン島,미클롱,Miquelon,Miquelon,Miquelão,Микелон,Miquelon,Miquelon,Đảo Miquelon,密克隆岛,Q15076349,1159104989,میکوئلون,מיקלון-לנגלייד,Міквелон,میکیولون,密克隆島
5,island,I. Robinson Crusoe,,,-33.589852000,-78.872522000,Seven seas (open ocean),South Pacific Ocean,6.0,I. Robinson Crusoe,جزيرة روبنسون كروزو,আই. রবিনসন ক্রুসো,Robinsón Crusoe,Robinson Crusoe Island,Isla Robinson Crusoe,île Robinson Crusoe,Νήσος Ροβινσώνα Κρούσου,द्वीप रॉबिन्सन क्रूसो,Robinson Crusoe-sziget,Pulau Robinson Crusoe,isola di Robinson Crusoe,ロビンソン・クルーソー島,로빈슨크루소섬,Robinson Crusoe,Robinson Crusoe,Ilha Robinson Crusoe,Остров Робинзона Крузо,Robinson Crusoe-ön,Robinson Crusoe Adası,Đảo Robinson Crusoe,鲁宾逊克鲁索岛,Q329422,1159105027,جزیره رابینسون کروزوئه,אי רובינזון קרוזו,Острів Робінзона Крузо,I. رابنسن کروزو,魯賓遜克魯索島
5,cape,Cabo Orange,,,4.125735000,-51.242144000,South America,,6.0,Cabo Orange,كابو أورانج,কাবো অরেঞ্জ,Cabo Orange,Cape Orange,Cabo Orange,cap Orange,Κάμπο Όραντζ,काबो ऑरेंज,Cabo Orange,Tanjung Orange,Cabo Orange,オランジェ岬,카보 오렌지,Cabo Orange,Przylądek Orange,Cabo Orange,Кабо-Оранж,Cabo Orange,Cabo Orange,Mũi Orange,奥兰治角,Q963259,1159105029,کابو آرنج,כף אוראנג',Кабо-Оранж,کابو اورنج,橘角
5,cape,Cabo de Santa Marta Grande,,,-28.558078000,-48.735526000,South America,,6.0,,كابو دي سانتا مارتا غراندي,কাবো দে সান্তা মার্তা গ্র্যান্দে,Cabo de Santa Marta Grande,Cabo de Santa Marta Grande,Cabo de Santa Marta Grande,Cabo de Santa Marta Grande,Κάμπο ντε Σάντα Μάρτα Γκράντε,काबो द सांता मार्टा ग्रांडे,Cabo de Santa Marta Grande,Tanjung Santa Marta Grande,Cabo de Santa Marta Grande,サンタマルタ・グランデ岬,카보 데 산타 마르타 그란데,Cabo de Santa Marta Grande,Przylądek Santa Marta Grande,Cabo de Santa Marta Grande,Кабо-де-Санта-Марта-Гранде,Cabo de Santa Marta Grande,Cabo de Santa Marta Grande,Mũi Santa Marta Grande,圣玛尔塔格兰德角,,1159105031,کابو د سانتا مارتا گرند,כף סנטה מרתה גרנדה,Кабо-де-Санта-Марта-Гранде,کابو ڈی سانٹا مارٹا گرانڈے,大聖瑪爾塔角
5,cape,Punta del Este,,,-34.975503000,-54.933154000,South America,,6.0,,بونتا دل إيستي,পুন্তা দেল এস্তে,Punta del Este,Punta del Este,Punta del Este,Punta del Este,Πούντα ντελ Έστε,पुंटा डेल एस्टे,Punta del Este,Punta del Este,Punta del Este,プンタ・デル・エステ,푼타 델 에스테,Punta del Este,Punta del Este,Punta del Este,мыс Пунта-дель-Эсте,Punta del Este,Punta del Este,Mũi Este,埃斯特角,,1159105033,پونتا دل استه,פונטה דל אסטה,Пунта-дель-Есте,پونٹا ڈیل ایسٹے,埃斯特角
5,cape,Cabo San Antonio,,,-36.381052000,-56.655377000,South America,,6.0,,كابو سان أنطونيو,কাবো সান আন্তোনিও,Cabo San Antonio,Cape San Antonio,Cabo San Antonio,Cabo San Antonio,Κάμπο Σαν Αντόνιο,काबो सैन एंटोनियो,Cabo San Antonio,Tanjung San Antonio,Cabo San Antonio,サンアントニオ岬,카보 산 안토니오,Kaap San Antonio,Przylądek San Antonio,Cabo San Antonio,Кабо-Сан-Антонио,Cabo San Antonio,Cabo San Antonio,Mũi San Antonio,圣安东尼奥角,,1159105035,کابو سن آنتونیو,כף סן אנטוניו,Кабо-Сан-Антоніо,کابو سان اینٹونیو,聖安東尼奧角
5,cape,Cabo Corrientes,,,-38.135985000,-57.546212000,South America,,6.0,,كابو كورينتس,কাবো কোররিয়েন্তেস,Cabo Corrientes,Cabo Corrientes,Cabo Corrientes,Cabo Corrientes,Κάμπο Κορριέντες,काबो कोरियंटेस,Cabo Corrientes,Tanjung Corrientes,Cabo Corrientes,コリエンテス岬,카보 코리엔테스,Cabo Corrientes,Przylądek Corrientes,Cabo Corrientes,Кабо-Корриентес,Cabo Corrientes,Cabo Corrientes,Mũi Corrientes,特斯角,,1159105037,کابو کورینته,כף קוריינטס,Кабо Коррієнтес,کابو کورائنٹیس,科林特斯角
5,cape,Punta Rasa,,,-40.834718000,-62.282201000,South America,,6.0,,بونتا راسا,পুন্টা রাসা,Punta Rasa,Punta Rasa,Punta Rasa,Punta Rasa,Πούντα Ράσα,पुंटा रस,Punta Rasa,Punta Rasa,Punta Rasa,プンタ・ラサ,푼타 라사,Punta Rasa,Punta Rasa,Punta Rasa,мыс Пунта-Раса,Punta Rasa,Punta Rasa,Mũi Rasa,拉莎角,,1159105039,پونتا راسا,פונטה ראסה,Пунта-Раса,پونٹا راسا,拉薩角
5,cape,Cabo Dos Bahías,,,-44.988700000,-65.615952000,South America,,6.0,,كابو دوس باهياس,কাবো দোস বাহিয়াস,Cabo Dos Bahías,Cabo Dos Bahías,Cabo Dos Bahías,Cabo Dos Bahías,Κάμπο Ντος Μπαίας,काबो दोस बहियास,Cabo Dos Bahías,Tanjung Dos Bahias,Cabo Dos Bahías,ドス・バイアス岬,카보 도스 바이아스,Cabo Dos Bahías,Przylądek Dos Bahías,Cabo Dos Bahías,Кабо-Дос-Баиас,Cabo Dos Bahías,Cabo Dos Bahías,Mũi Dos Bahías,达巴亚斯角,,1159105043,کابو دوس باهیاس,כף דוס בהיאס,Кабо-дос-Байас,کابو ڈوس باہیاس,多斯巴哈斯角
5,cape,Cabo Delgado,,,-10.670103000,40.624309000,Africa,,6.0,Cabo Delgado,كابو ديلجادو,কাবো দেল্গাদো,Kap Delgado,Cape Delgado,Cabo Delgado,cap Delgado,Κάμπο Ντελγκάντο,काबो डेलगाडो,Cabo Delgado,Tanjung Delgado,Capo Delgado,デルガド岬,카보 델가도,Cape Delgado,Przylądek Delgado,Cabo Delgado,Кабо-Дельгадо,Cabo Delgado,Cabo Delgado,Mũi Delgado,德尔加杜角,Q1728307,1159105111,کابو دلگادو,כף דלגדו,Кабо-Делгадо,کابو ڈیلگاڈو,德尔加杜角
5,cape,Ponta da Barra,,,-23.829888000,35.515696000,Africa,,6.0,,بونتا دا بارا,পন্তা দা বাররা,Ponta da Barra,Ponta da Barra,Ponta da Barra,Ponta da Barra,Πόντα ντα Μπάρα,पोंटा दा बारास,Ponta da Barra-fok,Ponta da Barra,Ponta da Barra,バーラ岬,폰타 다 바라,Ponta da Barra,Ponta da Barra,Ponta da Barra,мыс Понта-да-Барра,Ponta da Barra,Ponta da Barra,Mũi Barra,巴拉角,,1159105115,پونتا د بارا,פונטה דה בארה,Понта-да-Барра,پونٹا ڈا بیرا,巴拉角
5,cape,Ponta São Sebastio,,,-22.118899000,35.480417000,Africa,,6.0,,بونتا ساو سيباستيو,পন্তা সাও সেবাস্তিও,Ponta São Sebastiao,Ponta São Sebastião,Ponta São Sebastião,Ponta São Sebastio,Πόντα Σάο Σεμπάστοπ,पोंटा साओ सेबेस्टियो,Ponta São Sebastio-fok,Ponta Sao Sebastio,Ponta São Sebastio,セバスティオ岬,폰타 상 세바스티오,Ponta São Sebastião,Ponta São Sebastio,Ponta de São Sebastião,мыс Понта-Сан-Себаштиан,Ponta São Sebastio,Ponta São Sebastio,Mũi São Sebastio,圣塞巴斯蒂安角,,1159105117,پونتا سائو سباستیو,פונטה סאו סבסטיו,Понта-Сао-Себастіо,پونٹا ساؤ سیبیسٹیو,聖塞巴斯帝歐角
5,cape,Ras Cantin,,,32.581636000,-9.273918000,Africa,,6.0,Ras Cantin,رأس كانتين,রাস ক্যান্টিন,Ras Cantin,Ras Cantin,Ras Cantin,cap Cantin,Ρας Κάντιν,रास कैंटिन,Ras Cantin,Ras Cantin,Ras Cantin,ラスカンタン,라스 칸틴,Ras Cantin,Ras Cantin,Ras Cantin,Кантен,Ras Cantin,Ras Cantin,Mũi Ras Cantin,坎廷角,Q18214270,1159105119,راس کانتین,כף קנטין,Рас-Кантін,راس کینٹن,拉斯坎廷角
5,cape,Ra’s Kasr,,,18.076817000,38.573746000,Africa,,6.0,,رأس قصر,রা'স কাসর,Ras Kasar,Ras Kasar,Ra’s Kasr,Ra’s Kasr,Ρα'ς Κασε,रास कस्र,Ra’s Kasr,Ras Kasr,Ra’s Kasr,ラスカサール,라스 카스르,Ras Kasar,Kasr,Ra’s Kasr,мвс Рас-Каср,Ra’s Kasr,Ra’s Kasr,Mũi Ra’s Kasr,卡斯尔角,,1159105121,رأس کسر,כף קאסר,Рас-Каср,راس قصر,卡斯爾角
5,cape,Ponta de Jericoacoara,,,-2.850440000,-40.067208000,South America,,6.0,,بونتا دي جيريكوكوارا,পন্তা দে জেরিকোয়াকোয়ারা,Ponta de Jericoacoara,Jericoacoara,Ponta de Jericoacoara,Ponta de Jericoacoara,Πόντα ντε Χερικοακοάρα,पोंटा डे जेरिकोकोआरा,Ponta de Jericoacoara-fok,Ponta de Jericoacoara,Ponta de Jericoacoara,ジェリコアコアラ岬,폰타 데 제리코아코아라,Ponta de Jericoacoara,Ponta de Jericoacoara,Ponta de Jericoacoara,,Ponta de Jericoacoara,Ponta de Jericoacoara,Mũi Jericoacoara,杰里科科拉角,,1159105123,پونتا د جریکوئاکوئارا,פונטה דה יריקואקוארה,Понта-де-Джерікоакоара,پونٹا ڈی جیریکوکورا,熱里科阿科阿拉角
5,cape,Cabo de São Roque,,,-5.193476000,-35.447654000,South America,,6.0,Cabo de São Roque,كابو دي ساو روك,কাবো দে সাও রোকে,Rochuskap,Cape São Roque,Cabo de São Roque,cap Saint Roque,Κάμπο ντε Σάο Ρόκε,काबो द साओ रोके,Cabo de São Roque,Tanjung São Roque,Capo San Rocco,サンロケ岬,카보 데 상 로케,Cape São Roque,São Roque,Cabo de São Roque,мыс Сан-Роке,Cabo de São Roque,Cabo de São Roque,Mũi São Roque,聖洛克岬,Q2535130,1159105125,کابو دو سائو راک,כף דה סאו רוקה,Кабо-де-Сао-Рок,کابو ڈی ساؤ روق,聖洛克岬
5,cape,Ponta da Baleia,,,-17.710136000,-39.157619000,South America,,6.0,,بونتا دا باليا,পন্তা দা বালেইয়া,Ponta da Baleia,Ponta da Baleia,Ponta da Baleia,Ponta Baleia,Πόντα ντα Μπαλέια,पोंटा दा बलिया,Ponta da Baleia-fok,Ponta da Baleia,Ponta da Baleia,バレイア岬,폰타 다 발레이아,Ponta da Baleia,Ponta da Baleia,Ponta da Baleia,мыс Понта-да-Балея,Ponta da Baleia,Ponta da Baleia,Mũi Baleia,巴莱亚角,,1159105127,پونتا د بالئیا,פונטה דה באליה,Понта-да-Балейа,پونٹا ڈا بیلیا,巴列亞角
5,cape,Cabo de São Tomé,,,-21.996382000,-41.009692000,South America,,6.0,Cabo de São Tomé,كابو دي ساو تومي,কাবো দে সাও তোমে,Cabo de São Tomé,Cabo de São Tomé,Cabo de São Tomé,Cabo de São Tomé,Κάμπο ντε Σάο Τομέ,काबो द साओ तोमे,Cabo de São Tomé,Tanjung Sao Tome,Cabo de São Tomé,サントメ岬,카보 데 상 투메,Cabo de São Tomé,Cabo de São Tomé,Cabo de São Tomé,мыс Сан-Томе,Cabo de São Tomé,Cabo de São Tomé,Mũi São Tomé,圣多美角,Q8254538,1159105129,کابودو سائو تومه,כף סאו טום,Кабо-де-Сао-Том,کابو ڈی ساؤ ٹوم,圣多美角
5,cape,Cabo Frio,,,-22.869501000,-41.962188000,South America,,6.0,Cabo Frio,كابو فريو,কাবো ফ্রিয়ো,Cabo Frio,Cabo Frio,Cabo Frío,Cabo Frio,Κάμπο Φρίο,काबो फ्रियो,Cabo Frio,Tanjung Frio,Cabo Frio,フリオ岬,카보 프리오,Cabo Frio,Przylądek Frio,Cabo Frio,Кабо-Фрио,Cabo Frio,Cabo Frio,Mũi Frio,弗里乌角,,1159105133,کابو فریو,כף פריו,Кабо-Фріо,کابو فرائو,弗里奧角
5,cape,Cabo San Diego,,,-54.640600000,-65.213650000,South America,,6.0,Cabo San Diego,كابو سان دييغو,কাবো সান দিয়েগো,Kap San Diego,Cabo San Diego,Cabo San Diego,cap San Diego,Κάμπο Σαν Ντιέγκο,काबो सैन डिएगो,Cabo San Diego,Tanjung San Diego,capo San Diego,サンディエゴ岬,카보 샌디에이고,Cabo San Diego,Przylądek San Diego,Cabo San Diego,Кабо-Сан-Диего,Cabo San Diego,Cabo San Diego,Mũi San Diego,圣地亚哥角,Q5738394,1159105135,کابو سن دیگو,כף סן דייגו,Кабо-Сан-Дієго,کابو سان ڈیگو,聖地亞哥角
5,cape,Cabo Tres Puntas,,,-47.237629000,-65.774707000,South America,,6.0,,كابو تريس بونتاس,কাবো ত্রেস পান্তাস,Cabo Tres Puntas,Cape Tres Puntas,Cabo Tres Puntas,Cabo Tres Puntas,Κάμπο Τρες Πούντας,काबो ट्रेस पंटास,Cabo Tres Puntas,Tanjung Tres Puntas,Cabo Tres Puntas,トレスプンタス岬,카보 트레스 푼타스,Cabo Tres Puntas,Przylądek Tres Puntas,Cabo Tres Puntas,Кабо-Трес-Пунтас,Cabo Tres Puntas,Cabo Tres Puntas,Mũi Tres Puntas,特雷斯蓬塔斯角,,1159105137,کابو ترس پونتاس,כף טרס פונטאס,Кабо-Трес-Пунтас,کابو ٹریس پنٹاس,特雷斯蓬塔斯角
5,cape,Cap Saint André,,,-16.174457000,44.467405000,Africa,,6.0,Cap Saint André,رأس سان أندريه,ক্যাপ সেন্ট আন্দ্রে,Cap Saint André,Tanjona Vilanandro,Cabo de Santo André,cap Saint-André,Καπ Σέν Αντρέ,कैप सेंट आंद्रे,Saint André-fok,Tanjung Saint Andre,Cap Saint André,サンタンドレ岬,캡 생 안드레,Tanjona Vilanandro,Przylądek Saint André,Cabo Saint-André,мыс Сен-Андре,Cap Saint André,Cap Saint André,Mũi Saint André,圣安德烈角,Q2937092,1159105139,دماغه سنت آندره,כף סנט אנדרו,мис Сант-Андре,کیپ سینٹ آندرے,聖安德烈角
5,cape,Cape St. Lucia,,,-28.552694000,32.367221000,Africa,,6.0,,رأس سان لوسيا,কেপ সেন্ট লুসিয়া,Cape St. Lucia,Cape Vidal,Cabo St. Lucia,Cape St. Lucia,Ακρωτήριο Αγία Λουκία,केप सेंट लूसिया,Szent Luca-fok,Tanjung St. Lucia,Cape St. Lucia,セント・ルチア岬,케이프 세인트 루시아,Cape St. Lucia,Cape St. Lucia,Cabo St. Lucia,мыс Сент-Люсия,Cape St. Lucia,St. Lucia Burnu,Mũi St. Lucia,圣卢西亚角,,1159105141,دماغه سنت لوسیا,כף סנט לוסיה,мис Сент-Лючіа,کیپ سینٹ لوشیا,聖露西亞角
5,cape,Cape St. Francis,,,-34.171766000,24.817688000,Africa,,6.0,,رأس سان فرانسيس,কেপ সেন্ট ফ্রান্সিস,Cape St. Francis,Cape St. Francis,Cabo San Francisco,Cape St. Francis,Ακρωτήριο Αγίου Φραγκίσκου,केप सेंट फ्रांसिस,Szent Ferenc-fok,Cape St. Francis,Cape St. Francis,セント・フランシス岬,케이프 세인트 프랜시스,Cape St. Francis,Cape St. Francis,Cabo St. Francis,мыс Святого Франциска,Cape St. Francis,St. Francis Burnu,Mũi St. Francis,圣弗朗西斯角,,1159105143,دماغه سنت فرانسیس,כף סנט פרנסיס,мис Сант-Френсіс,کیپ سینٹ فرانسس,聖法蘭西斯角
5,island,Minamitori-shima,,Marcus I.,24.319813000,153.958899000,Seven seas (open ocean),North Pacific Ocean,6.0,Minamitori-shima,مينامي-توري-شيما,মিনামিতোরি-শিমা,Minami-Torishima,Minamitorishima,Minami Torishima,île Minamitori,Μινάμι-Τόρι-σίμα,मिनामितोरी-शिमा,Minamitori-shima,Minamitorishima,Minami Torishima,南鳥島,미나미토리섬,Minamitorishima,Minami Tori-shima,Minamitorishima,Минамитори,Minami-Torishima,Minami Torishima,Minamitorishima,南鸟岛,Q1047492,1159105145,مینامی-توری-شیما,מינציו,Острів Мінамі-Торісіма,مینامی توری شیما,南鳥島
5,island,Islas de Martín Vaz,,,-20.559422000,-29.338439000,Seven seas (open ocean),Southern Atlantic Ocean,6.0,Is. Martín Vaz,جزر مارتن فاز,আইসেলস দে মার্টিন ওয়াজ,Islas de Martín Vaz,Islas de Martín Vaz,Islas de Martín Vaz,Martim Vaz,Ίσλας ντε Μαρτίν Βαζ,इस्ला द मार्टिन वाज़,Islas de Martín Vaz,Pulau Martin Vaz,Islas de Martín Vaz,マルティン・バズ諸島,이슬라스 데 마르틴 바즈,Martín Vaz (eilandengroep),Trindade oraz Martim Vaz,Ilhas de Martim Vaz,острова Триндади-э-Мартин-Вас,Islas de Martín Vaz,Islas de Martín Vaz,Đảo Martín Vaz,马丁瓦兹群岛,Q17505593,1159105147,جزیره مارتین واز,איי דה מרטין ואז,острови Мартин-Вас,ایسلاس ڈی مارٹن واز,馬丁瓦斯群島
5,island,Rockall,,,58.163524000,-12.408715000,Seven seas (open ocean),North Atlantic Ocean,6.0,Rockall,روكول,রকল,Rockall,Rockall,Rockall,Rockall,Ρόκαλ,रॉकल,Rockall,Rockall,Rockall,ロッコール島,로칼섬,Rockall,Rockall,Rockall,Роколл,Rockall,Rockall,Rockall,罗科尔,Q206137,1159105151,راکال,רוקול,Рокол,راکٹیل,羅科爾
5,island,I. de Cozumel,,,20.444687000,-86.880555000,North America,,6.0,I. de Cozumel,كوزوميل,আই. দে কোজুমেল,Cozumel,Cozumel Island,Isla Cozumel,Cozumel,Κόζουμελ,द्वीप डी कोज़ुमेले,Cozumel,Cozumel,Cozumel,コズメル,아일랜드 드 코수멜,Cozumel Island,Cozumel,Cozumel,Косумель,Cozumel,Cozumel,Cozumel,科苏梅尔岛,Q20119933,1159105153,کوزومل,קוסומל,Косумель,I۔ ڈی کوزومل,科蘇梅爾島
5,island,Bermuda Islands,,,32.317339000,-64.742895000,Seven seas (open ocean),North Atlantic Ocean,6.0,,جزر برمودا,বারমুডা আইল্যান্ড,Bermuda,Bermuda,Islas Bermudas,Bermudes,Νήσοι των Βερμούδων,बरमूडा द्वीप,Bermuda-szigetek,Kepulauan Bermuda,Bermuda,バミューダ諸島,버뮤다 아일랜즈,Bermuda (eilandengroep),Bermudy,Bermudas,Бермудские острова,Bermudaöarna,Bermuda Adaları,Quần đảo Bermuda,百慕大群岛,,1159105155,جزایر برمودا,איי ברמודה,Бермудські острови,برمودہ جزائر,百慕達群島
