scalerank	featurecla	name	elevation	comment	name_alt	lat_y	long_x	nation1	nation2	note	region	subregion	min_zoom	label	wikidataid	name_ar	name_bn	name_de	name_en	name_es	name_fr	name_el	name_hi	name_hu	name_id	name_it	name_ja	name_ko	name_nl	name_pl	name_pt	name_ru	name_sv	name_tr	name_vi	name_zh	ne_id	name_fa	name_he	name_uk	name_ur	name_zht
N	C	C	N	C	C	N	N	C	C	C	C	C	N	C	C	C	C	C	C	C	C	C	C	C	C	C	C	C	C	C	C	C	C	C	C	C	N	C	C	C	C	C
1	mountain	Mount Everest	8848.000000000	Worlds highest point		27.980475165	86.880625847				Asia		4.0		Q513	جبل إفرست	এভারেস্ট পর্বত	Mount Everest	Mount Everest	Everest	Everest	Έβερεστ	एवरेस्ट पर्वत	Csomolungma	Everest	Everest	エベレスト	에베레스트산	Mount Everest	Mount Everest	Evereste	Джомолунгма	Mount Everest	Everest Dağı	Everest	珠穆朗玛峰	1159105715	کوه اورست	אוורסט	Джомолунгма	ماؤنٹ ایورسٹ	珠穆朗瑪峰
2	mountain	Mount Kilimanjaro	5895.000000000	Highest point in Africa		-3.075738214	37.353282097				Africa		5.0		Q7296	جبل كليمنجارو	কিলিমাঞ্জারো	Kilimandscharo	Mount Kilimanjaro	Kilimanjaro	Kilimanjaro	Κιλιμάντζαρο	किलिमंजारो	Kilimandzsáró	Kilimanjaro	Kilimangiaro	キリマンジャロ	킬리만자로산	Kilimanjaro	Kilimandżaro	Kilimanjaro	Килиманджаро	Kilimanjaro	Kilimanjaro Dağı	Núi Kilimanjaro	乞力马扎罗山	1159105301	کلیمانجارو	קילימנג'רו	Кіліманджаро	کلیمنجارو	乞力马扎罗山
2	mountain	Vinson Massif	4892.000000000			-78.529351495	-85.633717414				Antarctica		5.0		Q163758	فينسون ماسيف	ভিনসন স্তূপপর্বত	Vinson-Massiv	Vinson Massif	Macizo Vinson	Massif Vinson	Όρος Βίνσεν	विन्सन मैसिफ़	Vinson Massif	Vinson Massif	Massiccio Vinson	ヴィンソン・マシフ	빈슨 산괴	Vinsonmassief	Masyw Vinsona	Maciço Vinson	Массив Винсон	Vinson Massif	Vinson Dağı	Vinson Massif	文森山	1159105413	توده وینسون	וינסון מסיב	Масив Вінсон	وینسن ماسیف	文森山
2	depression	Turpan Depression	-154.000000000			42.768683173	89.340098504				Asia		5.0		Q284780	منخفض التوربان	তুর্পন ডিপ্রেশন	Turpan-Senke	Turpan Depression	Depresión de Turfán	Dépression de Tourfan	Κοίλωμα Τουμπάν	तुरफ़ान द्रोणी	Turfani-medence	Cekungan Turpan	depressione di Turfan	トルファン盆地	투루판 분지	Turpanlaagte	Kotlina Turfańska	Depressão de Turfan	Турфанская впадина	Turpan Pendi	Turfan Havzası	Vùng trũng Thổ Lỗ Phiên	吐鲁番盆地	1159105721	چاله تورفان	שקע טורפאן	Турфанська улоговина	ٹیرپان ڈیپریشن	吐魯番盆地
2	depression		-416.000000000	Worlds lowest point		31.515387274	35.474742058				Asia		5.0																								1159105723					
2	pass	Khyber Pass	1070.000000000			34.098395087	71.097788933				Asia		5.0		Q191333	ممر خيبر	খাইবার গিরিপথ	Chaiber-Pass	Khyber Pass	Paso Khyber	Passe de Khyber	Πέρασμα Χαϊμπέρ	ख़ैबर दर्रा	Haibár-hágó	Celah Khyber	Passo Khyber	カイバル峠	카이베르 고개	Khyberpas	Chajber	Passo Khyber	Хайберский проход	Khyberpasset	Hayber Geçidi	Khyber Pass	开伯尔山口	1159105727	تنگه خیبر	מעבר ח'ייבר	Хайберський прохід	درۂ خیبر	開伯爾山口
2	mountain	K2	8611.000000000			35.882391669	76.513194207				Asia		5.0		Q43512	جبل كي 2	কে২	K2	K2	K2	K2	Κ2	के२	K2	K2	K2	K2	케이투	K2	K2	K2	Чогори	K2	K2 Dağı	K2	喬戈里峰	1159105729	کی۲	K2	K2	کے ٹو	喬戈里峰
2	mountain	Muztag Feng	6973.000000000		Ulugh Muztag	36.416510321	87.413218621				Asia		5.0		Q1560829	موزتاج فينغ	মুজতাগ ফেং	Ulugh Muztagh	Ulugh Muztagh	Ulugh Muztagh	Ulugh Muztagh	Μούζταγκ Φενγκ	मुज़्टैग फेंग	Muztag Feng	Muztag Feng	Muztag Feng	ウルグ・ムズタグ山	무즈타그 펑	Ulugh Muztagh	Ulug Muztag	Ulugh Muztagh	Улугмузтаг	Muztag Feng	Uluğ Muzdağ	Núi Mộc Tư Tháp Cách Phong	木孜塔格山	1159105731	موزتاگ فنگ	מוואנסה	Улугмузтаг	اولوغ موز تاغ	木孜塔格山
2	mountain	Kailash	6638.000000000			31.066595770	81.312510613				Asia		5.0		Q229107	جبل كايلاش	কৈলাস পর্বত	Kailash	Mount Kailash	Kailash	Kailash	Καΐλας	कैलाश पर्वत	Kajlás-hegy	Gunung Kailash	Kailash	カイラス山	카일라스산	Kailash	Kajlas	Monte Kailash	Кайлас	Kailash	Kailaş Dağı	Núi Kailash	冈仁波齐峰	1159105733	کوه کایلاش	הר קאילאש	Кайлас	کیلاش	岡仁波齊峰
2	depression		-28.000000000	Lowest point in Europe		44.257574774	49.009532097				Europe		5.0																								1159105951					
2	mountain	Gora Elbrus	5642.000000000	Highest point in Europe	Mount Elbrus	43.355169989	42.439219597				Europe		5.0		Q43105	إلبروس	এলব্রুস পর্বত	Elbrus	Mount Elbrus	Monte Elbrus	Elbrouz	Ελμπρούς	एल्ब्रुस पर्वत	Elbrusz	Gunung Elbrus	monte Elbrus	エルブルス山	옐브루스산	Elbroes	Elbrus	Monte Elbrus	Эльбрус	Elbrus	Elbruz Dağı	Elbrus	厄尔布鲁士山	1159105953	البروس	אלברוס	Ельбрус	البروس	厄尔布鲁士山
2	depression	Death Valley	-86.000000000	Lowest point in N. America		36.242254950	-116.828236457				North America		5.0		Q118388	وادي الموت	ডেথ ভ্যালি	Death Valley	Death Valley	Valle de la Muerte	vallée de la Mort	Κοιλάδα του Θανάτου	डेथ वैली	Death Valley	Death Valley	Valle della Morte	デスヴァレー	데스 밸리	Death Valley	Dolina Śmierci	Vale da Morte	Долина Смерти	Death Valley	Death Valley	Thung lũng Chết	死亡谷	1159106291	دث ولی	עמק המוות	Долина Смерті	وادئ موت	死亡谷
2	mountain	Denali	6194.000000000	Highest point in N. America	Mt. McKinley	63.069403387	-151.007313606				North America		5.0		Q130018	دينالي	দেনালি	Denali	Denali	Denali	Denali	Όρος ΜακΚίνλεϊ	देनाली	Denali	Denali	Denali	デナリ	다닐리산	Denali	Denali	Monte Denali	Денали	Denali	Denali Dağı	Denali	丹奈利峰	1159106297	مککینلی	הר דנאלי	Деналі	کوہ مک کینلی	丹奈利峰
2	mountain	Mount Whitney	4421.000000000			36.582709052	-118.292225715				North America		5.0		Q235539	جبل ويتني	মাউন্ট হুইটনি	Mount Whitney	Mount Whitney	Monte Whitney	mont Whitney	Όρος Χουίτνυ	व्हिटनी पर्वत	Mount Whitney	Gunung Whitney	Monte Whitney	ホイットニー山	휘트니산	Mount Whitney	Mount Whitney	Monte Whitney	Уитни	Mount Whitney	Whitney Dağı	Núi Whitney	惠特尼峰	1159106313	کوه ویتنی	הר ויטני	Гора Уїтні	ماؤنٹ وہائٹنی	惠特尼峰
2	depression		-16.000000000	Lowest point in Australia		-28.448663019	137.284434441				Oceania	Australia	5.0																								1159106743					
2	mountain	Mount Kosciuszko	2228.000000000	Highest point in Australia		-36.455865167	148.263194207				Oceania	Australia	5.0		Q178167	جبل كوسيياسكو	কস্চিয়স্কো পর্বত	Mount Kosciuszko	Mount Kosciuszko	Monte Kosciuszko	mont Kosciuszko	Κόσιουσκο	कोज़िअस्को पर्वत	Mount Kosciuszko	Gunung Kosciuszko	Monte Kosciuszko	コジオスコ	코지어스코산	Mount Kosciuszko	Góra Kościuszki	Monte Kosciuszko	Косцюшко	Mount Kosciuszko	Kosciuszko Dağı	Núi Kosciuszko	科修斯科山	1159106753	کوه کازیسکو	הר קושצ'ושקו	Косцюшко	کوہ کازیسکو	科修斯科山
2	mountain	Cerro Aconcagua	6959.000000000	Highest point in S. America		-32.655694269	-70.015797493				South America		5.0		Q39739	أكونكاغوا	অ্যাকনকাগুয়া পর্বত	Aconcagua	Aconcagua	Aconcagua	Aconcagua	Ακονκάγκουα	अकोंकागुआ	Aconcagua	Akonkagua	Aconcagua	アコンカグア	아콩카과산	Aconcagua	Aconcagua	Aconcágua	Аконкагуа	Aconcagua	Aconcagua	Aconcagua	阿空加瓜山	1159108719	آکونکاگوا	אקונקגווה	Аконкаґуа	اکنکاگوا	阿空加瓜山
2	depression		-40.000000000	Lowest point in S. America		-42.623955988	-63.968800422				South America		5.0																								1159108751					
2	mountain	Cero Raya	2070.000000000			5.451666571	-66.375599739				South America		5.0			سيرو رايا	সেরো রায়া	Cero Raya	Cerro La Raya	Cero Raya	Cero Raya	Τσερό Ράγια	सेरो राया	Cero Raya	Cero Raya	Cero Raya	セロ・ラヤ山	세로 라야	Cero Raya	Cero Raya	Cero Raya	Серо-Райя	Cero Raya	Cero Raya	Núi Cero Raya	莱雅山	1159108759	سرو رایا	הר ראיה	Серо-Райа	کیرو رایا	拉雅山
3	depression		-156.000000000	Lowest point in Africa		11.671820380	42.413340691				Africa		5.1																								1159105303					
3	mountain	Mount Takahe	3460.000000000			-76.272881769	-112.099842903				Antarctica		5.1	Mt. Takahe	Q358755	جبل تاكاهي	মাউন্ট তাকাহে	Mount Takahe	Mount Takahe	Monte Takahe	Mount Takahe	Όρος Τακάχε	ताकाहे पर्वत	Mount Takahe	Gunung Takahe	Monte Takahe	タカへ山	마운트 다카헤	Mount Takahe	Mount Takahe	Monte Takahe	гора Такахе	Takahe	Takahe Dağı	Núi Takahe	塔卡黑火山	1159105415	کوه تاکاهه	הר טאפוונוקו	Такахе	ماؤنٹ ٹیکاہے	塔卡黑火山
3	mountain	Mount Sidley	4285.000000000			-77.031548761	-126.066517707				Antarctica		5.1	Mt. Sidley	Q924312	جبل سيدلي	মাউন্ট সিদলি	Mount Sidley	Mount Sidley	Monte Sidley	mont Sidley	Όρος Σίντλεϊ	सिडली पर्वत	Mount Sidley	Gunung Sidley	Monte Sidley	シドリー山	마운트 시들리	Mount Sidley	Mount Sidley	Monte Sidley	Сидли	Sidley	Sidley Dağı	Núi Sidley	西德利火山	1159105417	کوه سیدلی	הר סר סנדפורד	Сідлей	ماؤنٹ سڈلے	西德利火山
3	mountain	Mount Fridtjof Nansen	4069.000000000			-85.347588800	-167.554676887				Antarctica		5.1	Mt. Fridtjof Nansen	Q3321842	جبل فريدجوف نانسن	মাউন্ট ফ্রিদতজফ নানসেন	Mount Fridtjof Nansen	Mount Fridtjof Nansen	Monte Fridtjof Nansen	mont Fridtjof Nansen	Όρος Φριντγιοφ Νάνσεν	फ्रिडजॉफ नानसेन पर्वत	Mount Fridtjof Nansen	Gunung Fridtjof Nansen	Monte Fridtjof Nansen	フリチョフナンセン山	마운틴 프리드조프 난센	Mount Fridtjof Nansen	Mount Fridtjof Nansen	Monte Fridtjof Nansen	гора Нансена	Fridtjof Nansen	Fridtjof Nansen Dağı	Núi Fridtjof Nansen	弗里喬夫南森山	1159105421	کوه فریدتجوف ناسن	הר הלקון	гора Фрідтьоф Нансен	ماؤنٹ فرڈٹوف نانسین	弗里喬夫南森山
3	mountain	Gongga Shan	7556.000000000			29.595770575	101.879161004				Asia		5.1		Q1537157	جبل غونغا	গোনজ্ঞা শান	Gongga Shan	Mount Gongga	Monte Gongga	Minya Konka	Γκόνγκα	माउंट गॉन्गा	Gongga Shan	Gunung Gongga	Gongga Shan	ミニヤコンカ	공가 샨	Mount Gongga	Minya Konka	Gongga Shan	Гонгга	Gongga Shan	Gongga Shan	Núi Gongga	贡嘎山	1159105703	گونگا شان	גונגה שאן	Гонгха Шан	گونگا شان	贡嘎山
3	mountain	Dhaulagiri	8172.000000000			28.696478583	83.495127800				Asia		5.1		Q165440	دهاولاغيري	ধবলগিরি	Dhaulagiri	Dhaulagiri	Dhaulagiri	Dhaulagiri	Νταουλαγκίρι	धौलागिरी	Dhaulagiri	Dhaulagiri	Dhaulagiri	ダウラギリ	다울라기리	Dhaulagiri	Dhaulagiri	Dhaulagiri	Дхаулагири	Dhaulagiri	Dhaulagiri	Dhaulagiri	道拉吉里峰	1159105705	دهالاگیری	דהולאגרי	Дхаулагірі	دہولاگری	道拉吉里峰
3	mountain	Belukha	4506.000000000			49.807074286	86.606333855				Asia		5.1		Q724367	جبل بيلوكا	বেলুখা	Belucha	Belukha Mountain	Beluja	mont Béloukha	Όρος Μπελούκα	बेलुखा पर्वत	Beluha	Belukha	Belucha	ベルーハ山	벨루하산	Beloecha	Biełucha	Monte Belukha	Белуха	Belucha	Beluça	Núi Belukha	别卢哈山	1159105709	کوه بلوخا	בלוקה	Бєлуха	بیلوکھا	別盧哈山
3	mountain	Nganglong Kangri	6720.000000000			32.816595770	80.999888543				Asia		5.1		Q4062402	إنجانجلونغ كانغري	এঙ্গাংলং কাংগরি	Nganglong Kangri	Nganglong Mountains	Nganglong Kangri	Nganglong Kangri	Νγκανγκλονγκ Κάνγκρι	एनगांगलांग कांगरी	Nganglong Kangri	Nganglong Kangri	Nganglong Kangri	港龍崗日	응강롱 캉리	Nganglong Kangri	Nganglong Kangri	Nganglong Kangri	Алинг-Гангри	Nganglong Kangri	Nganglong Kangri	Núi Nganglong Kangri	昂龙岗日山	1159105711	نگانگلونگ کانگری	ננגלונג קאנגרי	Нганглонг Кангрі	انگانگلونگ کینگری	昂隆革吉山
3	mountain	Geladandong	6621.000000000		Geladaindong	33.416632391	91.083384636				Asia		5.1		Q5530346	جيلاديندونغ	গেলাডাংদং	Geladaindong	Geladaindong Peak	Geladandong	Geladaindong	Γκελαντανντονγκ	गेलाडांडोंग	Geladandong	Geladandong	Geladandong	ゴラタントン山	젤라단동	Geladaindong Peak	Geladandong	Geladaindong	гора Геладайндонг	Geladaindong	Geladandong	Núi Các Lạp Đan Đông	各拉丹冬峰	1159105713	گلاداندونگ	גלאדאנגדונג	Геладайндонг	گیلاڈینگ ڈانگ	各拉丹冬峰
3	mountain	Mont Blanc	4807.000000000			45.833685614	6.865000847	France	Italy		Europe		5.1	Mt. Blanc	Q583	مون بلون	মোঁ ব্লঁ	Mont Blanc	Mont Blanc	Mont Blanc	mont Blanc	Λευκό Όρος	मोंट ब्लैंक	Mont Blanc	Mont Blanc	Monte Bianco	モンブラン	몽블랑산	Mont Blanc	Mont Blanc	Monte Branco	Монблан	Mont Blanc	Mont Blanc	Đỉnh Blanc	勃朗峰	1159105949	مون بلان	מון בלאן	Монблан	مونٹ بلانک	勃朗峰
3	mountain	Mount Washington	1917.000000000			44.267279364	-71.307423469				North America		5.1	Mt. Washington	Q572801	جبل واشنطن	মাউন্ট ওয়াশিংটন	Mount Washington	Mount Washington	Monte Washington	mont Washington	Όρος Ουάσινγκτον	वाशिंगटन पर्वत	Mount Washington	Gunung Washington	Monte Washington	ワシントン山	마운트워싱턴	Mount Washington	Góra Waszyngtona	Monte Washington	Вашингтон	Mount Washington	Washington Dağı	Núi Washington	偉大神靈之鄉	1159106271	کوه واشنگتن	הר וושינגטון	Вашингтон	ماؤنٹ واشنگٹن	偉大神靈之鄉
3	mountain	Mount Katahdin	1606.000000000			45.903387762	-68.923634407				North America		5.1	Mt. Katahdin	Q1858056	جبل كاتهدين	মাউন্ট কাতাহদিন	Mount Katahdin	Mount Katahdin	Monte Katahdin	mont Katahdin	Όρος Κατάχντιν	कैटादिन	Mount Katahdin	Gunung Katahdin	monte Katahdin	カタディン山	카타딘 산	Mount Katahdin	Mount Katahdin	Monte Katahdin	Катадин	Mount Katahdin	Katahdin Dağı	Núi Katahdin	卡塔丁山	1159106275	کوه کتاهدین	הר לאמלאם	Кетадн	ماؤنٹ کیٹاڈن	卡塔丁山
3	mountain	Mount Shasta	4322.000000000			41.409308173	-122.194996711				North America		5.1		Q748355	جبل شاستا	মাউন্ট শাস্তা	Mount Shasta	Mount Shasta	Monte Shasta	mont Shasta	Όρος Σάστα	माउण्टशस्ता	Shasta-hegy	Gunung Shasta	Monte Shasta	シャスタ山	샤스타 산	Shasta	Mount Shasta	Monte Shasta	Шаста	Mount Shasta	Shasta Dağı	Núi Shasta	沙斯塔山	1159106277	کوه شاستا	הר שסטה	Шаста	ماؤنٹ شاستا	沙斯塔山
3	mountain	Grand Teton	4199.000000000			43.763373114	-110.801808235				North America		5.1		Q2078034	غراند تيتون	গ্র্যান্ড টেটন	Grand Teton	Grand Teton	Grand Teton	Grand Teton	Γκραντ Τέτον	ग्रैंड टेटन	Grand Teton	Grand Teton	Grand Teton	グランド・ティトン	그랜드 티턴	Grand Teton	Grand Teton	Grand Teton	гора Гранд-Титон	Grand Teton	Grand Teton	Núi Grand Teton	大提顿峰	1159106281	دریاچه تتون	גרנד טיטון	Гранд-Тітон	گرینڈ ٹیٹن	大提頓峰
3	mountain	Mount Hood	3426.000000000			45.384466864	-121.696583625				North America		5.1		Q275662	جبل هود	মাউন্ট হুড	Mount Hood	Mount Hood	Monte Hood	mont Hood	Όρος Χουντ	हुड पर्वत	Mount Hood	Gunung Hood	Monte Hood	フッド山	후드산	Mount Hood	Mount Hood	Monte Hood	Маунт-Худ	Mount Hood	Hood Dağı	Núi Hood	胡德山	1159106287	کوه هود	הר הוד	Гуд	ماؤنٹ ہڈ	胡德山
4	mountain	Mount Kenya	5199.000000000			-0.150079034	37.299937371				Africa		6.0		Q172070	جبل كينيا	কেনিয়া পর্বত	Mount-Kenya-Massiv	Mount Kenya	Monte Kenia	mont Kenya	Όρος Κένυα	माउंट केन्या	Kenya-hegy	Gunung Kenya	Monte Kenya	ケニア山	케냐산	Mount Kenya	Kenia	Monte Quénia	Кения	Mount Kenya	Kenya Dağı	Núi Kenya	肯尼亚山	1159105297	کوه کنیا	הר קניה	Кенія	کوہ کینیا	肯尼亞山
4	mountain	Mount Stanley	4979.000000000			0.380072333	29.872080925				Africa		6.0	Mt. Stanley	Q221666	جبل ستانلي	মাউন্ট স্ট্যানলি	Mount Stanley	Mount Stanley	Monte Stanley	mont Stanley	Όρος Στάνλεϊ	स्टेनली पर्वत	Stanley-hegy	Gunung Stanley	Monte Stanley	スタンリー山	스탠리산	Mount Stanley	Góra Stanleya	Monte Stanley	Стэнли	Mont Ngaliema	Stanley Dağı	Núi Standley	斯坦利山	1159105299	کوه استنلی	הר סטנלי	Стенлі	ماؤنٹ اسٹینلے	斯坦利山
4	mountain	Klyuchevskaya Sopka	4750.000000000			56.055975653	160.643931511				Asia		6.0		Q210252	كلويشيفسكايا سوبكا	ক্ল্যুচেভস্কায়া সোপকা	Kljutschewskaja Sopka	Klyuchevskaya Sopka	Kliuchevskoi	Klioutchevskoï	Κλουτσέφκαγια	क्ल्यूचेव्सकाया	Kljucsevszkaja Szopka	Klyuchevskaya Sopka	Ključevskaja Sopka	クリュチェフスカヤ山	클류쳅스카야산	Kljoetsjevskaja Sopka	Kluczewska Sopka	Klyuchevskaya Sopka	Ключевская Сопка	Kljutjevskaja Sopka	Klyuchevskaya Sopka	Klyuchevskaya Sopka	克柳切夫火山	1159105637	کلوچفسکایا اسپوکا	קלוצ׳בסקאיה סופקה	Ключевська Сопка	کلائیوچیوسکایا سوپکا	克柳切夫火山
4	mountain	Bogda Feng	5445.000000000		Bogda Peak	43.795111395	88.317393425				Asia		6.0		Q1037396	قمة بوغدا	বোগদা ফেং	Bogda Feng	Bogda Peak	Bogda Shan	pic Bogda	Μπόγντα Φενγκ	बोगदा पर्वत शृंखला	Bogda Feng	Bogda Feng	Bogda Feng	ボゴダ峰	보거다펑	Bogda Shan	Bogda Feng	Bogda Feng	Богдо-Ула	Bogda Feng	Bogda Zirvesi	Núi Bác Cách Đạt Phong	博格达峰	1159105687	بوگدافنگ	בוגדה פנג	Богдо-Ула	بوگڈا فینگ	博格达峰
4	mountain	Pik Imeni Ismail Samani	7495.000000000			38.932379462	72.021739129				Asia		6.0		Q41413	قمة إسماعيل ساماني	পিক ইমেনি ইসমাইল সামানি	Pik Ismoil Somoni	Ismoil Somoni Peak	Pico Ismail Samani	Pic Ismail Samani	Ισμοΐλ Σομόνι Πικ	इस्माइल सामानी पर्वत	Iszmoilí Szomoní-csúcs	Puncak Ismail Samani	Picco Ismail Samani	イスモイル・ソモニ峰	이스모일소모니봉	Ismail Samanipiek	Szczyt Ismaila Samaniego	Pico Ismail Samani	Пик Исмоила Сомони	Pik Ismoil Somoni	Somoni Zirvesi	Đỉnh Ismail Samani	伊斯梅尔·索莫尼峰	1159105691	قله اسماعیل سامانی	פסגת אימני איסמעיל סמני	Пік Ісмаїла Самані	کوہ اسماعیل سامانی	伊斯梅尔·索莫尼峰
4	mountain	Gora Manas	4482.000000000			42.289984442	71.054209832				Asia		6.0		Q13171265	جبل ماناس	গোরা মানাস	Gora Manas	Gora Manas	Gora Manas	Gora Manas	Γκόρα Μάνας	गोरा मानस	Gora Manas	Gora Manas	Gora Manas	マナス山	고라 마나스	Gora Manas	Góra Manas	Monte Manas	гора Манас	Gora Manas	Gora Manas	Núi Manas	玛纳斯山	1159105693	گورا ماناس	הר מאנס	гора Манас	گورا ماناس	瑪納斯山
4	mountain	Shah Fuladi	5048.000000000			34.642096259	67.627696160				Asia		6.0		Q20191405	شاه فولادي	শাহ ফুলাদি	Shah Fuladi	Shāh Fōlādī	Shah Fuladi	Shāh Fōlādī	Σαχ Φουλάδι	शाह फुलादी	Shah Fuladi	Shah Fuladi	Shah Fuladi	シャー・フラディ	샤 풀라디	Shāh Fōlādī	Shah Fuladi	Shāh Fōlādī	Шахфулади	Shāh Fōlādī	Shah Fuladi	Núi Shah Fuladi	沙阿富拉迪山	1159105695	شاه فولادی	שאה פוּלאדי	Шах Фуладі	شاہ فولادی	富拉第山
4	mountain	Kuh-e Jang Qal'eh	4171.000000000			33.117010809	64.188365105				Asia		6.0		Q20190966	جبل جانج قلعة	কুহ-এ জ্যাং কালেহ	Kuh-e Jang Qal’eh	Kuh-e Jang Qal'eh	Kuh-e Jang Qal'eh	Kuh-e Jang Qal'eh	Κου-ε Τζανγκ Καλ-ε	कुह-ए जंग कले'एह	Kuh-e Jang Qal'eh	Kuh-e Jang Qal'eh	Kuh-e Jang Qal'eh	クーヘ・ジャン・カレヘ山	구 장 칼레	Kuh-e Jang Qal’eh	Kuh-e Jang Qal'eh	Kūh-e Jang Qal`eh		Kuh-e Jang Qal'eh	Kuh-e Jang Qal'eh	Núi Jang Qal'eh	江盖勒山	1159105697	کوه جنگ قله	קוה-א ג'אנג קאלה	гора Джанг-Квалех	کوہ جنگ قالیہ	杰奎山
4	mountain	Gora Munku-Sardyk	3491.000000000			51.716376044	100.616587761				Asia		6.0			جبل مونكو سارديك	গোরা মুংকু-সারদাইক	Berg Munku Sardyk	Mönkh Saridag	Gora Munku-Sardyk	Gora Munku-Sardyk	Γκόρα Μούνκου-Σαρντούκ	गोरा मुंकू-सार्डिक	Gora Munku-Sardyk	Gunung Munku-Sardyk	Munku-Sardyk	ムンク・サルディク山	고라 문쿠-사르딕	Gora Munku-Sardyk	Góra Munku-Sardyk	Monte Munku-Sardyk	гора Мунку́-Сарды́к	Gora Munku-Sardyk	Gora Munku-Sardyk	Núi Munku-Sardyk	蒙库萨尔德克山	1159105699	گورا مونکو- سردیک	הר מונקו-סרדיק	гора Мунку-Сардик	گورا منکو ساردیک	慕科薩德山
4	mountain	Wutai Shan	3058.000000000			39.087591864	113.570201043				Asia		6.0		Q120314	جبل ووتاى	উতাই শান	Wutai Shan	Mount Wutai	Monte Wutai	mont Wutai	Όρος Γουτάι	वुताई शान	Vutaj-hegy	Gunung Wutai	Monte Wutai	五台山	우타이산	Wutai Shan	Wutai Shan	Monte Wutai	Утайшань	Wutaishan	Wutai Dağı	Ngũ Đài sơn	五台山	1159105701	کوه ووتای	הר ווטאי	Утайшань	ووتائی شان	五台山
4	mountain	Kangtö	7060.000000000			27.874701239	92.531993035				Asia		6.0		Q6362901	كانجتو	কাংগটো	Kangto	Kangto	Kangtö	Kangtö	Κανγτό	कंगतो पर्वत	Kangtö	Kangto	Kangtö	カント山	강토	Kangto	Kanggardo	Kangtö	гора Кангто	Kanggardo Rizê	Kangtö	Núi Kangtö	康格多山	1159105717	کانگتو	קאנגטו	Кангто	کانگٹو	康格多山
4	mountain	Mount Chamberlin	2749.000000000			69.281073309	-144.913624641				North America		6.0	Mt. Chamberlin	Q3321738	جبل شامبرلين	মাউন্ট চেম্বারলিন	Mount Chamberlin	Mount Chamberlin	Monte Chamberlin	mont Chamberlin	Όρος Τσάμπερλιν	चेम्बरलिन पर्वत	Mount Chamberlin	Gunung Chamberlin	Monte Chamberlin	チェンバリン山	마운트 챔벌린	Mount Chamberlin	Mount Chamberlin	Monte Chamberlin	гора Чемберлин	Mount Chamberlin	Chamberlin Dağı	Núi Chamberlin	千柏林山	1159106299	کوه چمبرلین	הר קליבלנד	гора Чемберлен	ماؤنٹ چیمبرلین	錢伯林山
4	mountain	Gunung Kinabalu	4101.000000000			6.083380438	116.549937371				Asia	Malay Archipelago	6.0		Q60967	جبل كينابالو	কিনাবালু পর্বত	Kinabalu	Mount Kinabalu	Monte Kinabalu	mont Kinabalu	Κιναμπάλου	गुनुंग किनाबालु	Gunung Kinabalu	Gunung Kinabalu	Monte Kinabalu	キナバル山	키나발루산	Mount Kinabalu	Kinabalu	Monte Kinabalu	Кинабалу	Gunung Kinabalu	Kinabalu Dağı	Núi Kinabalu	京那巴鲁山	1159107181	کوه کینبالو	הר קינאבאלו	Кінабалу	گننگ کینابالو	京那巴鲁山
4	mountain	Puncak Jaya	4884.000000000		Carstensz Pyramid	-4.077691339	137.166270379				Oceania	Melanesia	6.0		Q1045888	بونتشاك جايا	পুঞ্চাক জায়া	Carstensz-Pyramide	Puncak Jaya	Jaya	Puncak Jaya	Πούντσακ Τζάγια	पुंकाक जय	Puncak Jaya	Puncak Jaya	Puncak Jaya	プンチャック・ジャヤ	푼착자야산	Puncak Jaya	Jaya	Pirâmide Carstensz	Пунчак-Джая	Puncak Jaya	Puncak Jaya	Puncak Jaya	查亞峰	1159107539	پونچاک جایا	פונצ'אק ג'איה	Пунчак-Джая	پنچاک جایا	查亞峰
4	mountain	Chimborazo	6267.000000000			-1.469292902	-78.817494270				South America		6.0		Q14081	تشيمبورازو	চিম্বোরাজো	Chimborazo	Chimborazo volcano	Volcán Chimborazo	Volcan Chimborazo	Τσιμποράζο	चिम्बरोजी	Chimborazo	Gunung Chimborazo	Chimborazo	チンボラソ	침보라소산	Chimborazo	Chimborazo	Vulcão Chimborazo	Чимборасо	Chimborazo	Chimborazo	Chimborazo	钦博拉索山	1159108689	چیمبورازو	צ'ימבורסו	Чімборасо	چمبورازو	钦博拉索山
4	mountain	Pico Bolívar	4980.000000000			8.552862860	-71.052723762				South America		6.0		Q213704	بيكو بوليفار	পিকো বলিভার	Pico Bolívar	Pico Bolívar	Pico Bolívar	Pico Bolívar	Πίκο Μπολίβαρ	पिको बोलिवार	Pico Bolívar	Gunung Bolivar	Pico Bolívar	ボリバル山	볼리바르봉	Pico Bolívar	Bolívar	Pico Bolívar	Пик Боливар	Pico Bolívar	Pico Bolívar	Pico Bolívar	玻利瓦尔峰	1159108707	پیکو بولیوار	פסגת בוליבר	Піко-Болівар	پیکو بولیوار	玻利瓦爾峰
4	mountain	Cerro Champaquí	2770.000000000			-31.991631769	-64.916005012				South America		6.0		Q1061148	سيرو تشامباكوي	সেরোও চ্যাম্পাকুই	Champaquí	Mount Champaquí	Champaquí	Champaquí	Σέρρο Τσαμπακί	सेरो चंपाक्वि	Cerro Champaquí	Gunung Champaqui	Champaquí	セロ・チャンパキ山	세로 참파키	Mount Champaquí	Góra Champaquí	Cerro Champaquí	Чампаки	Cerro Champaquí	Cerro Champaquí	Núi Champaquí	錢帕基山	1159108737	کوه شامپاکی	הר צ'מפאקי	Чампакі	کیرو چیمپاقی	錢帕基山
5	mountain	Jebel Toubkal	4165.000000000			31.062079169	-7.916127082				Africa		6.0		Q503433	توبقال	জেবেল তোউবকাল	Jbel Toubkal	Jbel Toubkal	Monte Tubqal	Jbel Toubkal	Τζέμπελ Τουμπκάλ	जेबेल टूबकाल	Toubkal	Jbel Toubkal	Jbel Toubkal	ツブカル山	제벨 투브칼	Toubkal	Tubkal	Jbel Toubkal	Джебель-Тубкаль	Jbel Toubkal	Jebel Toubkal	Núi Toubkal	图卜卡勒峰	1159105269	توبکال	הר טובקאל	Тубкаль	جیبیل ٹوبکال	圖卜卡勒峰
5	mountain	Thabana Ntlenyana	3482.000000000			-29.466607355	29.266734246				Africa		6.0		Q733132	ثابانا نتلينيانا	থাবানা নটলিনয়ানা	Thabana Ntlenyana	Thabana Ntlenyana	Thabana Ntlenyana	Thabana Ntlenyana	Ταμπάνα Ντλενγιάνα	थबाना एनत्लेन्याना	Thabana Ntlenyana	Thabana Ntlenyana	Thabana Ntlenyana	タバナントレニャナ山	타바나은틀렌야나	Thabana Ntlenyana	Thabana Ntlenyana	Thabana Ntlenyana	Тхабана-Нтленьяна	Thabana Ntlenyana	Thabana Ntlenyana Dağı	Núi Thabana Ntlenyana	塔巴纳恩特莱尼亚纳山	1159105271	تابانا نتلنیانا	תאבאנה נְטלֶניאנה	Табана Нтленьяна	تھابانا لینیانا	塔巴纳恩特莱尼亚纳山
5	mountain	Mount Batu	4307.000000000			6.666693427	39.416758660				Africa		6.0	Mt. Batu	Q247952	جبل باتو	মাউন্ট বাতু	Batu	Mount Batu	Monte Batu	Mont Batu	Όρος Μπατού	बटु पर्वत	Mount Batu	Gunung Batu	Monte Batu	バツ山	마운트 바투	Mount Batu	Mount Batu	Monte Batu	Бату	Batu	Batu Dağı	Núi Batu	巴圖山	1159105273	کوه باتو	הר בונגונג	Бату	ماؤنٹ باٹو	巴圖山
5	mountain	Argun	3418.000000000			6.109808661	36.747325066				Africa		6.0		Q24032213	آرغون	আরগুন	Argun	Argun	Argun	Argoun	Αργκούν	अर्गुन	Argun	Argun	Argun	アルグン山	아르군	Argun	Argun	Argun	Аргун	Argun	Argun	Núi Argun	阿尔贡山	1159105277	آرگان	ארגוּן	Аргун	آرگن	額爾古納山
5	mountain	Kinyeti	3187.000000000			3.955084540	32.901255730				Africa		6.0		Q948298	كينيتي	কিন্যেতি	Kinyeti	Kinyeti	Kinyeti	Kinyeti	Κινιέτι	किन्येति	Kinyeti	Kinyeti	Kinyeti	キヌエティ山	키네티	Kinyeti	Kinyeti	Kinyeti	Киньети	Kinyeti	Kinyeti	Núi Kinyeti	基涅提峰	1159105279	کینیتی	הר קיניאטי	Кіньєті	کنیٹی	基涅提峰
5	mountain	Muleta	3405.000000000			9.268866278	41.733531121				Africa		6.0			موليتا	মুলেতা	Gara Muleta	Gara Muleta	Muleta	Muleta	Μουλέτα	मुलेटा	Muleta	Muleta	Muleta	ムレータ山	물레타	Muleta	Muleta	Muleta	гора Гара-Мулета	Muleta	Muleta	Núi Muleta	穆莱塔山	1159105281	مولتا	מולהצ'ן	Мулета	مولیٹا	穆雷塔山
5	mountain	Ras Dejen	4533.000000000			13.236761786	38.372325066				Africa		6.0		Q275435	رأس دجن	রাস দেজেন	Ras Daschän	Ras Dashen	Monte Ras Dejen	Ras Dashan	Ρας Ντασέν	रास देजेन	Ras Dashan	Ras Dashen	Ras Dascian	ラス・ダシャン山	라스 데헨	Ras Dashan	Ras Daszan	Ras Dashan	Рас-Дашэн	Ras Dashen	Ras Dejen	Ras Dashen	拉斯·达善峰	1159105283	راس داشن	ראס דשן	Рас-Дашен	راس ڈیجین	拉斯·達善峰
5	mountain	Mount Elgon	4321.000000000			1.123114325	34.534190300				Africa		6.0	Mt. Elgon	Q732838	جبل إلغون	মাউন্ট এলগন	Mount Elgon	Mount Elgon	Monte Elgon	mont Elgon	Όρος Έλγον	एल्गोन पर्वत	Elgon-hegy	Gunung Elgon	Monte Elgon	エルゴン山	엘곤산	Mount Elgon	Mount Elgon	Monte Elgon	Элгон	Mount Elgon	Elgon Dağı	Núi Elgon	埃尔贡山	1159105285	کوه الگان	הר אלגון	Елгон	ماؤنٹ ایلگون	埃爾貢山
5	depression	Qattara Depression	-133.000000000			30.043585516	27.496226433				Africa		6.0			منخفض القطارة	কোয়াত্তারা ডিপ্রেশন	Qattara-Senke	Qattara Depression	Depresión de Qattara	Dépression de Qattara	Κοίλωμα Ντεπρεσιόν	कतरा डिप्रेशन	Kattara-mélyföld	Depresi Qattara	Depressione di Qattara	カッターラ低地	카타라 디프레션	Qattara-depressie	Depresja Kattara	Depressão de Qattara	впадина Каттара	Qattarasänkan	Kattara Çöküntüsü	Hố sụt Qattara	盖塔拉洼地	1159105287	فرورفتگی کاتارا	שקע קטארה	Кваттара Депрешин	قاتارا ڈیپریشن	卡塔拉窪地
5	depression	Er Richat Depression	485.000000000			21.205511786	-11.373036262				Africa		6.0			منخفضات إر ريشات	এর রিচাট ডিপ্রেশন	Guelb er Richat	Richat Structure	Depresión Er Richat	Structure de Richat	Κοίλωμα Ελ Ριχάτ	एर रिचैट डिप्रेशन	Er Richat-mélyföld	Depresi Er Richat	Struttura di Richat	リシャット構造	어 리차트 디프레션	Richatstructuur	Kalb ar-Riszat	Estrutura de Richat	впадина Эр-Ришат	Er Richat	Er Richat Çöküntüsü	Cấu trúc Er Richat	艾里查洼地	1159105289	فرورفتگی ار ریچات	שקע אר ריצ'אט	западина Ер-Річат	ایر ریچاٹ ڈیپریشن	里查特窪地
5	mountain	Talo	4413.000000000			10.656683661	37.882212761				Africa		6.0			تالو	তালো	Talo	Talo	Talo	Talo	Τάλω	तालो	Talo	Talo	Talo	タロ山	탈로	Talo	Talo	Talo	гора Тало	Talo	Talo	Núi Talo	塔洛山	1159105291	تالو	טאלו	Тало	تالو	塔洛山
5	mountain	Lesatima	4001.000000000			-0.324761652	36.623667839				Africa		6.0	Lesatima	Q6923490	ساتيما	লেসাতিমা	Oldoinyo Lesatima	Mount Satima	Lesatima	Mount Satima	Όρος Σατίμα	लेसैटिमा	Lesatima	Lesatima	Lesatima	レサティマ	레사티마	Mount Satima	Lesatima	Monte Satima	гора Лесатима	Lesatima	Lesatima	Núi Lesatima	萊薩蒂馬山	1159105295	کوه ساتیما	לסטימה	Лесатіма	لیسٹیما	萊薩蒂馬山
5	mountain	Otgon Tenger	4000.000000000			47.599982001	97.550181511				Asia		6.0		Q1572208	أوتون تينجر	ওতাগোন তেংগার	Otgon Tenger Uul	Otgontenger	Monte Otgontenger	Otgontenger	Οτγκόν Τένγκερ	ओटगॉन टेंगर	Otgontenger-hegy	Otgon Tenger	Otgon Tenger	オトゴンテンゲル山	오트곤 텐거	Otgontenger	Otgontenger uul	Monte Otgontenger	Отгон-Тэнгэр	Otgon Tenger Uul	Ötügen dağ	Otgontenger	鄂特冈腾格里峰	1159105663	اوتگونتگر	אוטגון טנגר	Отгон-Тенгер	اوٹگون ٹینگر	鄂特岡騰格里峰
5	mountain	Gora Korolenko	1647.000000000			58.288275458	115.007090691				Asia		6.0			جبل كورولينكو	গোরা কোরোলেঙ্কো	Gora Korolenko	Gora Korolenko	Gora Korolenko	Gora Korolenko	Γκόρα Κορολένκο	गोरा कोरोलेंको	Gora Korolenko	Gora Korolenko	Gora Korolenko	コロレンコ山	고라 코롤렌코	Gora Korolenko	Góra Korolenko	Monte Korolenko	гора Короленко	Gora Korolenko	Gora Korolenko	Núi Korolenko	科罗连科山	1159105665	گورا کورولنکو	הר קורולנקו	гора Короленко	گورا کرولینکو	科羅連科山
5	mountain	Magen Gangri	6282.000000000		Mt. Amnyemaqen	34.800116278	99.466563347				Asia		6.0			ماجن جانجري	ম্যাগেন গ্যাংরি	Machen Kangri	Amne Machin	Magen Gangri	Amnye Machen	Μάγκεν Γκάνγκρι	मैगन गैंग्री	Magen Gangri	Magen Gangri	Magen Gangri	マチン山脈	마겐 강리	Amne Machin	Magen Gangri	Maqen Gangri	гора Мачен-Гангри	Magen Gangri	Magen Gangri	Núi Magen Gangri	玛卿岗日山	1159105667	ماگن گانگری	מאגראפלט	Магенгангрі	میگن گانگری	馬根崗日山
5	mountain	Taibai Shan	3767.000000000			33.950079657	107.750132683				Asia		6.0			جبل تايباي	তাইবাই শান	Taibai Shan	Mount Taibai	Taibai Shan	Taibai Shan	Ταϊμπάι Σαν	ताइबाई शान	Taibai Shan	Gunung Taibai	Taibai Shan	太白山	타이바이 샨	Taibai Shan	Taibai	Monte Taibai	гора Тайбай-Шань	Taibai Shan	Taibai Shan	Thái Bạch Sơn	太白山	1159105669	تایبی شان	טאיבאי שאן	Тайбайшан	تائی بائی شان	太白山
5	mountain	Nanda Devi	7817.000000000			30.542486884	79.970957879				Asia		6.0		Q26794321	ناندا ديفي	নন্দা দেবী	Nanda Devi	Nanda Devi	Nanda Devi	Nanda Devi	Νάντα Ντέβι	नंदा देवी	Nanda Devi	Nanda Devi	Nanda Devi	ナンダ・デヴィ山	난다 데비	Nanda Devi	Nanda Devi	Nanda Devi	гора На́нда-Де́ви	Nanda Devi	Nanda Devi	Núi Nanda Devi	楠达德维山	1159105673	ناندا دِوی	נאנדה דווי	Нанда Деві	ناندا دیوی	南達德維峰
5	mountain	Daba Shan	2708.000000000			32.249884345	109.000010613				Asia		6.0		Q29613993	جبل داباشان	ডাবা শান	Daba Shan	Daba Mountains	Daba Shan	Daba Shan	Ντάμπα Σαν	डाबा शन	Daba Shan	Pegunungan Daba	Monti Daba	大巴山	다바 샨	Daba Shan	Daba Shan	Montanhas Daba	хребет Дабашань	Daba Shan	Daba Shan	Đại Ba Sơn	大巴山	1159105675	دابا شان	דאבה שאן	Дабашань	ڈابا شان	大巴山
5	mountain	Mazong Shan	2584.000000000			41.523810126	97.119395379				Asia		6.0		Q6798636	مازونج شان	মাজং শান	Mǎzōng Shān	Mazong Mountain	Mazong Shan	Mazong Shan	Μαζόνγκ Σαν	माजोंग शन	Mazong Shan	Mazong Shan	Mazong Shan	馬宗山	마종 샨	Mazong Mountain	Mazong Shan	Montanha de Mǎzōng	гора Мачжун-Шань	Mazong Shan	Mazong Shan	Mã Tông Sơn	马鬃山	1159105677	مازونگ شان	מבאלה	Мажонгшан	مازونگ شان	马鬃山
5	mountain	Gora Burun-Shibertuy	2519.000000000			49.700079657	109.983164910				Asia		6.0			جبل بورون شيبرتوي	গোরো বুরুন-শিবেরতুই	Gora Burun-Shibertuy	Gora Burun-Shibertuy	Gora Burun-Shibertuy	Gora Burun-Shibertuy	Γκόρα Μπουρούν-Σιμπερτούι	गोरा बुरुन-शिबर्टुय	Gora Burun-Shibertuy	Gora Burun-Shibertuy	Gora Burun-Shibertuy	バルン・シベルトゥイ山	고라 부룬-시베르투이	Gora Burun-Shibertuy	Góra Burun-Shibertuy	Monte Burun-Shibertuy	гора Бурун-Шибертуй	Gora Burun-Sjibertuj	Gora Burun-Shibertuy	Núi Burun-Shibertuy	布伦希伯图伊山	1159105679	گورا بورون- شیبرتوی	הר בורון-שיברטוי	гора Бурун-Шибертуй	گورا بورون شیبرٹائے	布拉希伯圖山
5	mountain	Skalistyy Golets	2467.000000000			56.401495673	119.098033074				Asia		6.0	Skalistyy Golets	Q4421491	سلسلة جبال سكاليستي	স্কালিস্টি গোলেটস	Skalistyy Golets	Skalistyy Golets	Skalisty Golets	Skalistyy Golets	Σκαλίστιι Γκόλετς	स्कालिस्टी गोलेट्स	Skalistyy Golets	Skalistyy Golets	Skalistyy Golets	スカリスチェイ・ゴレツ	스칼리스티 골렛	Skalisty Golec	Skalisty Golec	Skalistyy Golets	Скалистый Голец	Skalistyy Golets	Skalistyy Golets	Núi Skalistyy Golets	斯卡利斯蒂戈雷山	1159105681	اسکالیستی گولتس	סקאליסטי גולטס	Скалистий Голець	ایسکالسٹی گولیٹس	斯卡利斯帝戈雷山
5	mountain	Inyaptuk Golets	2641.000000000			56.364081122	111.631480339				Asia		6.0			إينيابتوك جوليتس	ইন্যাপতুক	Inyaptuk Golets	Golets Inyaptuk	Inyaptuk Golets	Golets Inyaptuk	Ινιαπτούκ Γκολέτς	इन्याप्टुक गोलेट्स	Inyaptuk Golets	Inyaptuk Golets	Inyaptuk Golets	ゴレツ・イニャプトゥク山	인압툭 골렛츠	Iniaptuk	Golets Inyaptuk	Monte Inyaptuk	гора Голец Иняптук	Injaptuk Golets	Inyaptuk Golets	Núi Inyaptuk Golets	因亚普图克戈勒克山	1159105683	اینیاپتوک گولتس	איניאפוטוק גולֶץ	Голєц Іняптук	آئیناپٹک گولیٹس	伊亞普圖克山
5	mountain	Grandiozny Peak	2891.000000000			53.925665595	96.038584832				Asia		6.0			جبل جراندوزني	গ্র্যান্ডিওজনি	Grandiozny Peak	Grandiozny Peak	Pico Grandiozny	Monts Saïan	Κορυφή Γκραντζιόζνι	ग्रैंडियोज़नी चोटी	Grandiozny-csúcs	Puncak Grandiozny	Picco Grandiozny	グランディオズニー山	그란디오즈니 피크	Grandiozny Peak	Szczyt Grandiozny Peak	Pico Grandiozny	Пик Грандиозный	Grandiozny-toppen	Grandiozny Zirvesi	Núi Grandiozny	格兰迪奥兹尼峰	1159105685	قله گرندیزونی	פסגת גרנדיוז'ני	Грандіозний пік	گرینڈیوزنی پیک	格蘭迪奧茲尼峰
5	mountain	Wheeler Peak	3982.000000000			38.986273505	-114.313404914				North America		6.0	Wheeler Pk.	Q2566649	ويلر بيك	হুইলার পিক	Wheeler Peak	Wheeler Peak	Pico Wheeler	pic Wheeler	Κορυφή Γουίλερ	व्हीलर पीक	Wheeler-csúcs	Gunung Wheeler	Wheeler Peak	ホイーラー・ピーク	휠러 피크	Wheeler Peak	Wheeler Peak	Pico Wheeler	Уилер Пик	Wheeler Peak	Wheeler Zirvesi	Núi Wheeler	惠勒峰	1159106217	قله ویلر	פסגת וילר	пік Уіллер	وہیلر پیک	惠勒峰
5	mountain	Borah Peak	3859.000000000			44.140082098	-113.782215950				North America		6.0	Borah Pk.	Q893312	بورا بيك	বোরাহ পীক	Borah Peak	Borah Peak	Pico Borah	Pic Borah	Κορυφή Μπόρα	बोरा द्वीप	Borah-csúcs	Gunung Borah	Borah Peak	ボーラ山	보라 피크	Borah Peak	Borah Peak	Pico Borah	Бора-Пик	Borah Peak	Borah Zirvesi	Núi Borah	博拉峰	1159106221	قله بُراه	פסגת בורה	Бора Пік	بورا پیک	博拉峰
5	mountain	Sacajawea Peak	2999.000000000			45.253668524	-117.296681282				North America		6.0	Sacajawea Pk.	Q7396563	قمة ساكاجويا	সাকাজাওয়া শিখর	Sacajawea Peak	Sacajawea Peak	Pico Sacajawea	Pic Sacajawea	Κορυφή Σακαγιαουέα	सकाजवेया पीक	Sacajawea-csúcs	Gunung Sacajawea	Sacajawea Peak	サカジャウィア・ピーク	사카자위아 피크	Sacajawea Peak	Sacajawea Peak	Pico Sacajawea	пик Сакаджавеа	Sacajawea Peak	Sacajawea Zirvesi	Núi Sacajawea	萨卡贾维亚峰	1159106225	قله ساکاجاوی	פסגת Sacajawea	Пік Сакаяве	ساکاجوئیا پیک	薩卡賈維亞峰
5	mountain	Trapper Peak	3096.000000000			45.906378485	-114.313832161				North America		6.0	Trapper Pk.	Q7835655	قمة ترابر	ট্র্যাপার পিক	Trapper Peak	Trapper Peak	Pico Trapper	Trapper Peak	Κορυφή Τράπερ	ट्रैपर पीक	Trapper-csúcs	Gunung Trapper	Trapper Peak	トラッパー・ピーク	트래퍼 피크	Trapper Peak	Trapper Peak	Pico Trapper	гора Траппер	Trapper Peak	Trapper Zirvesi	Núi Trapper	特拉珀峰	1159106231	قله تراپر	פסגת טראפר	пік Траппер	ٹریپر پیک	特拉珀峰
5	mountain	King's Peak	4123.000000000			40.782110907	-110.372547981				North America		6.0	Kings Pk.	Q1642538	جبل كينغز	কিং'স পীক	Kings Peak	King's Peak	Pico King	Pic Kings	Κινγκς Πικ	किंग्स चोटी	King's Peak-csúcs	Gunung Kings	King's Peak	キングス・ピーク	킹스 피크	Kings Peak	Kings Peak	Kings Peak	Кингс-Пик	King's Peak	King's Peak	Núi King's	國王峰	1159106235	قله کینگ	פסגת קינג'ז	Кінґс Пік	کنگز پیک	國王峰
5	mountain	Mount Baker	3286.000000000			48.795904852	-121.823231575				North America		6.0	Mt. Baker	Q594387	جبل بيكر	মাউন্ট বেকার	Mount Baker	Mount Baker	Monte Baker	mont Baker	Όρος Μπέικερ	बेकर पर्वत	Mount Baker	Gunung Baker	Monte Baker	ベーカー山	베이커산	Mount Baker	Mount Baker	Monte Baker	Бейкер	Mount Baker	Baker Dağı	Núi Baker	貝克山	1159106239	کوه بیکر	הר בלבי	гора Бейкер	ماؤنٹ بیکر	貝克山
5	mountain	Mount Elbert	4402.000000000			39.125067450	-106.446400520				North America		6.0	Mt. Elbert	Q657225	جبل إلبرت	মাউন্ট অ্যালবার্ট	Mount Elbert	Mount Elbert	Monte Elbert	mont Elbert	Όρος Έλμπερτ	एल्बर्ट पर्वत	Mount Elbert	Gunung Elbert	Monte Elbert	エルバート山	앨버트 산	Mount Elbert	Mount Elbert	Monte Elbert	Элберт	Mount Elbert	Elbert Dağı	Núi Elbert	埃爾伯特峰	1159106243	کوه البرت	הר פרנק ריי	Елберт	ماؤنٹ ایلبرٹ	埃爾伯特峰
5	mountain	Uncompahgre Peak	4361.000000000			38.073004462	-107.477040168				North America		6.0	Uncompahgre Pk.	Q576184	قمة أنكومباهجري	আনকম্পাহ্গা পিক	Uncompahgre Peak	Uncompahgre Peak	Pico Uncompahgre	pic Uncompahgre	Κορυφή Ουνκομπάγκρε	अनकम्पाग्रे चोटी	Uncompahgre-csúcs	Gunung Uncompahgre	Uncompahgre Peak	アンコンパーグレ・ピーク	언컴파그레 피크	Uncompahgre Peak	Uncompahgre Peak	Pico Uncompahgre	пик Анкомпа́гре	Uncompahgre Peak	Uncompahgre Zirvesi	Núi Uncompahgre	乌马格里峰	1159106249	قله اونکومپاهگره	פסגת אנקומפגרה	пік Ункопагре	انکومپہگرے پیک	安肯帕格里峰
5	mountain	Mount Mitchell	2037.000000000			35.764715887	-82.268055793				North America		6.0	Mt. Mitchell	Q615337	جبل ميتشل	মাউন্ট মিশেল	Mount Mitchell	Mount Mitchell	Monte Michell	mont Mitchell	Όρος Μίτσελ	मिशेल पर्वत	Mount Mitchell	Gunung Mitchell	Monte Mitchell	ミッチェル山	미첼산	Mount Mitchell	Mount Mitchell	Monte Mitchell	Митчелл	Mount Mitchell	Mitchell Dağı	Núi Mitchell	米切爾峰	1159106253	کوه میچل	הר מורסבי	Мітчелл	ماؤنٹ مچل	米切爾峰
5	mountain	Clingmans Dome	2025.000000000			35.586920477	-83.497425911				North America		6.0		Q685166	جبل كلينجمانس دوم	ক্লিংম্যান্স ডোম	Clingmans Dome	Clingmans Dome	Clingmans Dome	dôme Clingmans	Κλίνγκμανς Ντόουμ	कलिंगमांस डोम	Clingmans Dome	Clingmans Dome	Clingmans Dome	クリングマンズ・ドーム	클링만스 돔	Clingmans Dome	Clingmans Dome	Clingmans Dome	Клингманс-Доум	Clingmans Dome	Clingmans Dome	Núi Clingmans Dome	克林曼山	1159106257	گنبد کلینگمانس	כיפת קלינגמנס	Клінгманс Дом	کلینگمینز ڈوم	克林曼穹丘
5	mountain	Spruce Knob	1482.000000000			38.714972235	-79.535206672				North America		6.0		Q1815535	جبل سبروس	স্প্রুস নব	Spruce Knob	Spruce Knob	Spruce Knob	Spruce Knob	Σπρους Νομπ	स्प्रूस नॉब	Spruce Knob	Spruce Knob	Spruce Knob	スプルース山	스프루스 노브	Spruce Knob	Spruce Knob	Spruce Knob	гора Спрус-Ноб	Spruce Knob	Spruce Knob	Núi Spruce Knob	斯普鲁斯丘	1159106261	اسپروس ناب	ספרוס נוב	Спрус Кноб	سپروس کناب	斯普鲁斯丘
5	mountain	Mount Rogers	1746.000000000			36.677008368	-81.562001106				North America		6.0	Mt. Rogers	Q688645	جبل روجرز	মাউন্ট রজার্স	Mount Rogers	Mount Rogers	Monte Rogers	mont Rogers	Όρος Ρότζερς	रोजर्स पर्वत	Mount Rogers	Gunung Rogers	Monte Rogers	ロジャース山	마운트 로저스	Mount Rogers	Mount Rogers	Monte Rogers	гора Роджерс	Mount Rogers	Rogers Dağı	Núi Rogers	罗杰斯山	1159106267	کوه راجرز	הר רוזוולט	Роджерс	ماؤنٹ راجرز	罗杰斯山
